[{"HEALTH_FACILITY_NAME": "Amotare CHPS", "site_id": 4754, "HEALTH_FACILITY_LOCALITY": "Fanteakwa North District", "latitude": 6.54585, "longitude": -0.310491, "weight": 0.5278710214746969, "id": 1}, {"HEALTH_FACILITY_NAME": "Bethel CL", "site_id": 4752, "HEALTH_FACILITY_LOCALITY": "Upper Manya Krobo District", "latitude": 6.246023, "longitude": -0.224321, "weight": 0.1937219002054425, "id": 2}, {"HEALTH_FACILITY_NAME": "Kenop Care HSP", "site_id": 4746, "HEALTH_FACILITY_LOCALITY": "Kwahu West Municipal", "latitude": 6.53519, "longitude": -0.752876, "weight": 0.7570069458242484, "id": 3}, {"HEALTH_FACILITY_NAME": "Healthline HSP", "site_id": 4745, "HEALTH_FACILITY_LOCALITY": "Atiwa East District", "latitude": 6.40056, "longitude": -0.56453, "weight": 0.5037733887194122, "id": 4}, {"HEALTH_FACILITY_NAME": "Gomoa Oguaa HC", "site_id": 4690, "HEALTH_FACILITY_LOCALITY": "Gomoa West District", "latitude": 5.420284, "longitude": -0.814832, "weight": 0.9558132606738038, "id": 5}, {"HEALTH_FACILITY_NAME": "Appeadem CHPS", "site_id": 4689, "HEALTH_FACILITY_LOCALITY": "Asene Akroso Manso District", "latitude": 5.772501, "longitude": -0.734189, "weight": 0.6317897660823225, "id": 6}, {"HEALTH_FACILITY_NAME": "Trauma (Winneba) HSP", "site_id": 4688, "HEALTH_FACILITY_LOCALITY": "Effutu Municipal", "latitude": 5.371365, "longitude": -0.642, "weight": 0.8894377954632402, "id": 7}, {"HEALTH_FACILITY_NAME": "Abonko CHPS", "site_id": 4687, "HEALTH_FACILITY_LOCALITY": "Gomoa West District", "latitude": 5.392402, "longitude": -0.768958, "weight": 0.947563403109678, "id": 8}, {"HEALTH_FACILITY_NAME": "Denkyira CHPS", "site_id": 4686, "HEALTH_FACILITY_LOCALITY": "Gomoa West District", "latitude": 5.430577, "longitude": -0.788908, "weight": 0.9284885629307272, "id": 9}, {"HEALTH_FACILITY_NAME": "Wassa CHPS", "site_id": 4685, "HEALTH_FACILITY_LOCALITY": "Gomoa West District", "latitude": 5.450715, "longitude": -0.776937, "weight": 0.9029188937742417, "id": 10}, {"HEALTH_FACILITY_NAME": "Dawurampong PC", "site_id": 4684, "HEALTH_FACILITY_LOCALITY": "Gomoa West District", "latitude": 5.435258, "longitude": -0.787322, "weight": 0.9233990539705647, "id": 11}, {"HEALTH_FACILITY_NAME": "Appiahkrom Debiso CHPS", "site_id": 4683, "HEALTH_FACILITY_LOCALITY": "Gomoa West District", "latitude": 5.458087, "longitude": -0.86706, "weight": 0.9648284476683004, "id": 12}, {"HEALTH_FACILITY_NAME": "Tarkwa CHPS", "site_id": 4682, "HEALTH_FACILITY_LOCALITY": "Gomoa West District", "latitude": 5.479898, "longitude": -0.843216, "weight": 0.9290852218789131, "id": 13}, {"HEALTH_FACILITY_NAME": "Bosudumase CHPS", "site_id": 4681, "HEALTH_FACILITY_LOCALITY": "Abuakwa North District", "latitude": 6.290393, "longitude": -0.419523, "weight": 0.306279553296655, "id": 14}, {"HEALTH_FACILITY_NAME": "Noguchi HC", "site_id": 4612, "HEALTH_FACILITY_LOCALITY": "Gomoa West District", "latitude": 5.360016, "longitude": -0.707919, "weight": 0.9379157443305922, "id": 15}, {"HEALTH_FACILITY_NAME": "Wenchi HC", "site_id": 4530, "HEALTH_FACILITY_LOCALITY": "Denkyembour District", "latitude": 5.994260281, "longitude": -0.9261969017, "weight": 0.7550823504853913, "id": 16}, {"HEALTH_FACILITY_NAME": "Tetteh Quarshie Memorial HSP", "site_id": 4484, "HEALTH_FACILITY_LOCALITY": "Akuapim North Municipal", "latitude": 5.921605135, "longitude": -0.132692743, "weight": 0.21057349647505666, "id": 17}, {"HEALTH_FACILITY_NAME": "Atuntumirem CHPS", "site_id": 4452, "HEALTH_FACILITY_LOCALITY": "Birim South District", "latitude": 5.86779799, "longitude": -0.9881282639, "weight": 0.8494905455776873, "id": 18}, {"HEALTH_FACILITY_NAME": "Noguchi", "site_id": 4446, "HEALTH_FACILITY_LOCALITY": "Ayawaso West Municipal", "latitude": 5.635451865, "longitude": -0.182595465, "weight": 0.4888665277456198, "id": 19}, {"HEALTH_FACILITY_NAME": "Ayemesu CHPS", "site_id": 3975, "HEALTH_FACILITY_LOCALITY": "Lower Manya Krobo District", "latitude": 6.15263506, "longitude": -0.03894776, "weight": 0.24843335847041714, "id": 20}, {"HEALTH_FACILITY_NAME": "St Annes PC", "site_id": 3974, "HEALTH_FACILITY_LOCALITY": "North Tongu District", "latitude": 6.160894347, "longitude": 0.216112188, "weight": 0.5236290950219018, "id": 21}, {"HEALTH_FACILITY_NAME": "Dorfor Adidome HC", "site_id": 3973, "HEALTH_FACILITY_LOCALITY": "North Tongu District", "latitude": 6.118967973, "longitude": 0.244266508, "weight": 0.5480285308452022, "id": 22}, {"HEALTH_FACILITY_NAME": "St Andrews HSP", "site_id": 3972, "HEALTH_FACILITY_LOCALITY": "Shai Osudoku District", "latitude": 5.92467823, "longitude": 0.01756875, "weight": 0.3370536107159985, "id": 23}, {"HEALTH_FACILITY_NAME": "Agotor CHPS", "site_id": 3969, "HEALTH_FACILITY_LOCALITY": "Shai Osudoku District", "latitude": 5.95016389, "longitude": 0.23087784, "weight": 0.5478600565459338, "id": 24}, {"HEALTH_FACILITY_NAME": "Breman Amanfopong CHPS", "site_id": 3968, "HEALTH_FACILITY_LOCALITY": "Asikuma/Odoben/Brakwa District", "latitude": 5.7351093, "longitude": -1.0117695, "weight": 0.9237591863553951, "id": 25}, {"HEALTH_FACILITY_NAME": "Brakwa HC", "site_id": 3967, "HEALTH_FACILITY_LOCALITY": "Asikuma/Odoben/Brakwa District", "latitude": 5.69907975, "longitude": -0.98474249, "weight": 0.9137901104479402, "id": 26}, {"HEALTH_FACILITY_NAME": "Aduosia CHPS", "site_id": 3966, "HEALTH_FACILITY_LOCALITY": "Asikuma/Odoben/Brakwa District", "latitude": 5.72623563, "longitude": -0.94845558, "weight": 0.8643992824832673, "id": 27}, {"HEALTH_FACILITY_NAME": "Gomoa Asebu CHPS", "site_id": 3962, "HEALTH_FACILITY_LOCALITY": "Gomoa East District", "latitude": 5.39442484, "longitude": -0.645810287, "weight": 0.8694203026721807, "id": 28}, {"HEALTH_FACILITY_NAME": "Adu Kofi CHPS", "site_id": 3961, "HEALTH_FACILITY_LOCALITY": "Upper West Akim District", "latitude": 5.843914902, "longitude": -0.50506143, "weight": 0.38017543752421545, "id": 29}, {"HEALTH_FACILITY_NAME": "Kwao Baah CHPS", "site_id": 3960, "HEALTH_FACILITY_LOCALITY": "Upper West Akim District", "latitude": 5.738136675, "longitude": -0.61405391, "weight": 0.5481668703542171, "id": 30}, {"HEALTH_FACILITY_NAME": "Volivo CHPS", "site_id": 3959, "HEALTH_FACILITY_LOCALITY": "Shai Osudoku District", "latitude": 6.096248328, "longitude": 0.246836839, "weight": 0.5491014811770247, "id": 31}, {"HEALTH_FACILITY_NAME": "Wawase Epicenter CHPS", "site_id": 3958, "HEALTH_FACILITY_LOCALITY": "Kwahu West Municipal", "latitude": 6.524470662, "longitude": -0.8195662, "weight": 0.8055234132875744, "id": 32}, {"HEALTH_FACILITY_NAME": "Methodist M/C Osubeng", "site_id": 3956, "HEALTH_FACILITY_LOCALITY": "Kwahu South District", "latitude": 6.662498367, "longitude": -0.91039594, "weight": 0.9806550074161273, "id": 33}, {"HEALTH_FACILITY_NAME": "Mframa CHPS", "site_id": 3955, "HEALTH_FACILITY_LOCALITY": "Kwahu South District", "latitude": 6.68915272, "longitude": -0.95347167, "weight": 1.03587617638019, "id": 34}, {"HEALTH_FACILITY_NAME": "Christian Quarters CHPS", "site_id": 3953, "HEALTH_FACILITY_LOCALITY": "Kwahu South District", "latitude": 6.607868227, "longitude": -0.713101548, "weight": 0.7839333153302923, "id": 35}, {"HEALTH_FACILITY_NAME": "Besease CHPS", "site_id": 3952, "HEALTH_FACILITY_LOCALITY": "Kwahu South District", "latitude": 6.607059027, "longitude": -0.8978986, "weight": 0.9302929973835984, "id": 36}, {"HEALTH_FACILITY_NAME": "Kibi College of Education Infirmary HC", "site_id": 3950, "HEALTH_FACILITY_LOCALITY": "Abuakwa South District", "latitude": 6.153794832, "longitude": -0.561474425, "weight": 0.3577458731715353, "id": 37}, {"HEALTH_FACILITY_NAME": "Akyem Osoroase CHPS", "site_id": 3949, "HEALTH_FACILITY_LOCALITY": "Atiwa East District", "latitude": 6.401344125, "longitude": -0.706587917, "weight": 0.6237348382051353, "id": 38}, {"HEALTH_FACILITY_NAME": "Akyem Odumase CHPS", "site_id": 3948, "HEALTH_FACILITY_LOCALITY": "Abuakwa South District", "latitude": 6.10254091, "longitude": -0.53712622, "weight": 0.3210609067410153, "id": 39}, {"HEALTH_FACILITY_NAME": "Ehiawoanwu CHPS", "site_id": 3946, "HEALTH_FACILITY_LOCALITY": "Atiwa East District", "latitude": 6.44532069, "longitude": -0.856977578, "weight": 0.7893826370510098, "id": 40}, {"HEALTH_FACILITY_NAME": "Survey Line CHPS", "site_id": 3945, "HEALTH_FACILITY_LOCALITY": "Asuogyaman District", "latitude": 6.43747248, "longitude": 0.05665773, "weight": 0.5263099833016518, "id": 41}, {"HEALTH_FACILITY_NAME": "Abume CHPS", "site_id": 3942, "HEALTH_FACILITY_LOCALITY": "Asuogyaman District", "latitude": 6.27624754, "longitude": 0.061745556, "weight": 0.4108003908206449, "id": 42}, {"HEALTH_FACILITY_NAME": "New Winneba CHPS", "site_id": 3940, "HEALTH_FACILITY_LOCALITY": "Effutu Municipal", "latitude": 5.41118503, "longitude": -0.65647229, "weight": 0.8596291100996489, "id": 43}, {"HEALTH_FACILITY_NAME": "Gyangyanadze CHPS", "site_id": 3939, "HEALTH_FACILITY_LOCALITY": "Effutu Municipal", "latitude": 5.39645, "longitude": -0.57674, "weight": 0.8313098828897294, "id": 44}, {"HEALTH_FACILITY_NAME": "Essuekyir CHPS", "site_id": 3938, "HEALTH_FACILITY_LOCALITY": "Effutu Municipal", "latitude": 5.372485363, "longitude": -0.584390693, "weight": 0.8588615478415293, "id": 45}, {"HEALTH_FACILITY_NAME": "Ansaful CHPS", "site_id": 3937, "HEALTH_FACILITY_LOCALITY": "Gomoa East District", "latitude": 5.387633248, "longitude": -0.648254998, "weight": 0.8772709999982367, "id": 46}, {"HEALTH_FACILITY_NAME": "Tokrase CHPS", "site_id": 3923, "HEALTH_FACILITY_LOCALITY": "Upper Manya Krobo District", "latitude": 6.348012478, "longitude": -0.210881645, "weight": 0.30748329810174285, "id": 47}, {"HEALTH_FACILITY_NAME": "Battor CHPS", "site_id": 3922, "HEALTH_FACILITY_LOCALITY": "Upper Manya Krobo District", "latitude": 6.4072428, "longitude": -0.029347267, "weight": 0.44259529191814173, "id": 48}, {"HEALTH_FACILITY_NAME": "Akwamufie HC", "site_id": 3921, "HEALTH_FACILITY_LOCALITY": "Asuogyaman District", "latitude": 6.278014488, "longitude": 0.081555122, "weight": 0.4303312367560106, "id": 49}, {"HEALTH_FACILITY_NAME": "Zevor CHPS", "site_id": 3920, "HEALTH_FACILITY_LOCALITY": "Akyemansa District", "latitude": 5.955273055, "longitude": -1.1484583, "weight": 1.0046032355190078, "id": 50}, {"HEALTH_FACILITY_NAME": "Kwaboadi No2 CHPS", "site_id": 3919, "HEALTH_FACILITY_LOCALITY": "Akyemansa District", "latitude": 6.000770008, "longitude": -1.19046988, "weight": 1.0456820809484395, "id": 51}, {"HEALTH_FACILITY_NAME": "Kwaboadi No1 CHPS", "site_id": 3918, "HEALTH_FACILITY_LOCALITY": "Akyemansa District", "latitude": 6.018787787, "longitude": -1.213032058, "weight": 1.0692792056556109, "id": 52}, {"HEALTH_FACILITY_NAME": "Gyewani CHPS", "site_id": 3917, "HEALTH_FACILITY_LOCALITY": "Akyemansa District", "latitude": 6.034894953, "longitude": -1.080405522, "weight": 0.9217291523227256, "id": 53}, {"HEALTH_FACILITY_NAME": "Asuboa North CHPS", "site_id": 3916, "HEALTH_FACILITY_LOCALITY": "Akyemansa District", "latitude": 6.17311568, "longitude": -1.112582432, "weight": 0.9627321942957109, "id": 54}, {"HEALTH_FACILITY_NAME": "Asabidie CHPS", "site_id": 3915, "HEALTH_FACILITY_LOCALITY": "Akyemansa District", "latitude": 6.0383282, "longitude": -1.210992755, "weight": 1.0660204130073994, "id": 55}, {"HEALTH_FACILITY_NAME": "Mampong U-CHPS", "site_id": 3914, "HEALTH_FACILITY_LOCALITY": "Akuapim North Municipal", "latitude": 5.919202778, "longitude": -0.134331728, "weight": 0.2115954765227135, "id": 56}, {"HEALTH_FACILITY_NAME": "Aworasa CHPS", "site_id": 3911, "HEALTH_FACILITY_LOCALITY": "West Akim Municipal", "latitude": 5.863548578, "longitude": -0.751895632, "weight": 0.6032375576797016, "id": 57}, {"HEALTH_FACILITY_NAME": "Senya Kokoado CHPS", "site_id": 3910, "HEALTH_FACILITY_LOCALITY": "Awutu Senya West District", "latitude": 5.392020269, "longitude": -0.492583445, "weight": 0.7996006603315661, "id": 58}, {"HEALTH_FACILITY_NAME": "Opeikuma CHPS", "site_id": 3909, "HEALTH_FACILITY_LOCALITY": "Gomoa East District", "latitude": 5.5583268, "longitude": -0.475956058, "weight": 0.6218888959677696, "id": 59}, {"HEALTH_FACILITY_NAME": "Amuzukorpe CHPS", "site_id": 3902, "HEALTH_FACILITY_LOCALITY": "Awutu Senya East Municipal", "latitude": 5.58655954, "longitude": -0.416382963, "weight": 0.568633446457341, "id": 60}, {"HEALTH_FACILITY_NAME": "St Gregory Catholic HSP", "site_id": 3891, "HEALTH_FACILITY_LOCALITY": "Gomoa East District", "latitude": 5.524426163, "longitude": -0.475221918, "weight": 0.6560354789139266, "id": 61}, {"HEALTH_FACILITY_NAME": "Odom CHPS", "site_id": 3888, "HEALTH_FACILITY_LOCALITY": "Agona West Municipal", "latitude": 5.62852745, "longitude": -0.85666088, "weight": 0.8333619146825855, "id": 62}, {"HEALTH_FACILITY_NAME": "Ahamadonko CHPS", "site_id": 3887, "HEALTH_FACILITY_LOCALITY": "Agona West Municipal", "latitude": 5.66069111, "longitude": -0.84700547, "weight": 0.8040631093450459, "id": 63}, {"HEALTH_FACILITY_NAME": "Otabilkrom HC", "site_id": 3885, "HEALTH_FACILITY_LOCALITY": "Agona West Municipal", "latitude": 5.53136873, "longitude": -0.70998759, "weight": 0.7869145817891016, "id": 64}, {"HEALTH_FACILITY_NAME": "Nankese CHPS", "site_id": 3884, "HEALTH_FACILITY_LOCALITY": "Asikuma/Odoben/Brakwa District", "latitude": 5.70220812, "longitude": -0.88790261, "weight": 0.8178257779850696, "id": 65}, {"HEALTH_FACILITY_NAME": "Mante CHPS", "site_id": 3883, "HEALTH_FACILITY_LOCALITY": "Asikuma/Odoben/Brakwa District", "latitude": 5.70414411, "longitude": -1.04958001, "weight": 0.9760208686012739, "id": 66}, {"HEALTH_FACILITY_NAME": "Kuntanase CHPS", "site_id": 3882, "HEALTH_FACILITY_LOCALITY": "Asikuma/Odoben/Brakwa District", "latitude": 5.60173935, "longitude": -0.91545826, "weight": 0.903556782733096, "id": 67}, {"HEALTH_FACILITY_NAME": "Asikuma HC", "site_id": 3881, "HEALTH_FACILITY_LOCALITY": "Asikuma/Odoben/Brakwa District", "latitude": 5.59031796, "longitude": -0.99491005, "weight": 0.9835841969405875, "id": 68}, {"HEALTH_FACILITY_NAME": "Benin CHPS", "site_id": 3880, "HEALTH_FACILITY_LOCALITY": "Asikuma/Odoben/Brakwa District", "latitude": 5.61106346, "longitude": -0.99830077, "weight": 0.9745214826879319, "id": 69}, {"HEALTH_FACILITY_NAME": "Bosomase CHPS", "site_id": 3879, "HEALTH_FACILITY_LOCALITY": "Asikuma/Odoben/Brakwa District", "latitude": 5.616238875, "longitude": -0.969658006, "weight": 0.9445710632222809, "id": 70}, {"HEALTH_FACILITY_NAME": "Breman Ayipeh CHPS", "site_id": 3878, "HEALTH_FACILITY_LOCALITY": "Asikuma/Odoben/Brakwa District", "latitude": 5.563302, "longitude": -0.94962701, "weight": 0.959084574064596, "id": 71}, {"HEALTH_FACILITY_NAME": "Domeabra CHPS-GH-1", "site_id": 3877, "HEALTH_FACILITY_LOCALITY": "Asikuma/Odoben/Brakwa District", "latitude": 5.666574428, "longitude": -0.9081289, "weight": 0.8572712604248341, "id": 72}, {"HEALTH_FACILITY_NAME": "Jamra CHPS", "site_id": 3876, "HEALTH_FACILITY_LOCALITY": "Asikuma/Odoben/Brakwa District", "latitude": 5.64605247, "longitude": -1.00837284, "weight": 0.9645199726750784, "id": 73}, {"HEALTH_FACILITY_NAME": "Jamra PC", "site_id": 3875, "HEALTH_FACILITY_LOCALITY": "Asikuma/Odoben/Brakwa District", "latitude": 5.6590068, "longitude": -1.01083929, "weight": 0.959988655103249, "id": 74}, {"HEALTH_FACILITY_NAME": "Kawanopado CHPS", "site_id": 3874, "HEALTH_FACILITY_LOCALITY": "Asikuma/Odoben/Brakwa District", "latitude": 5.66311739, "longitude": -1.05322511, "weight": 0.9994378795955344, "id": 75}, {"HEALTH_FACILITY_NAME": "Suromanya CHPS", "site_id": 3873, "HEALTH_FACILITY_LOCALITY": "Agona East District", "latitude": 5.577825663, "longitude": -0.602679904, "weight": 0.673085882382008, "id": 76}, {"HEALTH_FACILITY_NAME": "Ninta CHPS", "site_id": 3872, "HEALTH_FACILITY_LOCALITY": "Agona West Municipal", "latitude": 5.703065548, "longitude": -0.762557603, "weight": 0.7005814592810252, "id": 77}, {"HEALTH_FACILITY_NAME": "Duakwa CHAG HSP", "site_id": 3871, "HEALTH_FACILITY_LOCALITY": "Agona East District", "latitude": 5.63106378, "longitude": -0.72603505, "weight": 0.719625069879106, "id": 78}, {"HEALTH_FACILITY_NAME": "Gomoa Obuasi HC", "site_id": 3867, "HEALTH_FACILITY_LOCALITY": "Gomoa East District", "latitude": 5.504199592, "longitude": -0.754615027, "weight": 0.8420602528829503, "id": 79}, {"HEALTH_FACILITY_NAME": "Gomoa Nsuaem CHPS", "site_id": 3866, "HEALTH_FACILITY_LOCALITY": "Gomoa East District", "latitude": 5.46925249, "longitude": -0.6438449, "weight": 0.797933741288798, "id": 80}, {"HEALTH_FACILITY_NAME": "Gomoa Manso CHPS", "site_id": 3865, "HEALTH_FACILITY_LOCALITY": "Gomoa East District", "latitude": 5.49125406, "longitude": -0.70775539, "weight": 0.8196319894813924, "id": 81}, {"HEALTH_FACILITY_NAME": "Gomoa Ekwankrom CHPS", "site_id": 3864, "HEALTH_FACILITY_LOCALITY": "Gomoa East District", "latitude": 5.51009021, "longitude": -0.694737944, "weight": 0.7943473613253988, "id": 82}, {"HEALTH_FACILITY_NAME": "Gomoa Dahom CHPS", "site_id": 3863, "HEALTH_FACILITY_LOCALITY": "Gomoa East District", "latitude": 5.483561136, "longitude": -0.74620901, "weight": 0.8531928548444498, "id": 83}, {"HEALTH_FACILITY_NAME": "Gomoa Adzentem CHPS", "site_id": 3862, "HEALTH_FACILITY_LOCALITY": "Gomoa East District", "latitude": 5.46012163, "longitude": -0.61317396, "weight": 0.7884733262927414, "id": 84}, {"HEALTH_FACILITY_NAME": "Gomoa Aboso CHPS", "site_id": 3861, "HEALTH_FACILITY_LOCALITY": "Gomoa East District", "latitude": 5.524801915, "longitude": -0.712175207, "weight": 0.7940176636117804, "id": 85}, {"HEALTH_FACILITY_NAME": "Gomoa Abaasa CHPS", "site_id": 3860, "HEALTH_FACILITY_LOCALITY": "Gomoa East District", "latitude": 5.467941227, "longitude": -0.67485887, "weight": 0.8184667314920692, "id": 86}, {"HEALTH_FACILITY_NAME": "Senya Breku HC", "site_id": 3859, "HEALTH_FACILITY_LOCALITY": "Awutu Senya West District", "latitude": 5.39182207, "longitude": -0.4973415, "weight": 0.801602826595957, "id": 87}, {"HEALTH_FACILITY_NAME": "Obrachere CHPS", "site_id": 3858, "HEALTH_FACILITY_LOCALITY": "Awutu Senya West District", "latitude": 5.65134917, "longitude": -0.575223965, "weight": 0.5897075356165032, "id": 88}, {"HEALTH_FACILITY_NAME": "Mfadwen CHPS", "site_id": 3857, "HEALTH_FACILITY_LOCALITY": "Awutu Senya West District", "latitude": 5.611026497, "longitude": -0.545239165, "weight": 0.6069387179512181, "id": 89}, {"HEALTH_FACILITY_NAME": "Chochoe CHPS", "site_id": 3856, "HEALTH_FACILITY_LOCALITY": "Awutu Senya West District", "latitude": 5.56997124, "longitude": -0.54487736, "weight": 0.6453862914328685, "id": 90}, {"HEALTH_FACILITY_NAME": "Bontrase HC", "site_id": 3855, "HEALTH_FACILITY_LOCALITY": "Agona East District", "latitude": 5.60827948, "longitude": -0.55939432, "weight": 0.6180851035672539, "id": 91}, {"HEALTH_FACILITY_NAME": "Bonsuoku CHPS", "site_id": 3854, "HEALTH_FACILITY_LOCALITY": "Awutu Senya West District", "latitude": 5.42686095, "longitude": -0.51434823, "weight": 0.7723082907381198, "id": 92}, {"HEALTH_FACILITY_NAME": "Bewuanum CHPS", "site_id": 3853, "HEALTH_FACILITY_LOCALITY": "Awutu Senya West District", "latitude": 5.63709567, "longitude": -0.56435916, "weight": 0.5950898720700375, "id": 93}, {"HEALTH_FACILITY_NAME": "Ayiresu CHPS", "site_id": 3852, "HEALTH_FACILITY_LOCALITY": "Awutu Senya West District", "latitude": 5.62120206, "longitude": -0.522089958, "weight": 0.5838056767281663, "id": 94}, {"HEALTH_FACILITY_NAME": "Awutu HC", "site_id": 3851, "HEALTH_FACILITY_LOCALITY": "Awutu Senya West District", "latitude": 5.512720915, "longitude": -0.514380767, "weight": 0.6854865701629163, "id": 95}, {"HEALTH_FACILITY_NAME": "Akrabong CHPS", "site_id": 3850, "HEALTH_FACILITY_LOCALITY": "Agona East District", "latitude": 5.616517947, "longitude": -0.569880037, "weight": 0.6171572377171185, "id": 96}, {"HEALTH_FACILITY_NAME": "Ahentia CHPS", "site_id": 3849, "HEALTH_FACILITY_LOCALITY": "Awutu Senya West District", "latitude": 5.55228605, "longitude": -0.53088093, "weight": 0.6547647840892303, "id": 97}, {"HEALTH_FACILITY_NAME": "Gomoa Okyereko HC", "site_id": 3848, "HEALTH_FACILITY_LOCALITY": "Gomoa East District", "latitude": 5.4174904, "longitude": -0.6031146, "weight": 0.8239581783349372, "id": 98}, {"HEALTH_FACILITY_NAME": "Gomoa Odumase CHPS", "site_id": 3847, "HEALTH_FACILITY_LOCALITY": "Gomoa East District", "latitude": 5.537861192, "longitude": -0.614119767, "weight": 0.7165624290784943, "id": 99}, {"HEALTH_FACILITY_NAME": "Gomoa Akramang HC", "site_id": 3846, "HEALTH_FACILITY_LOCALITY": "Awutu Senya West District", "latitude": 5.52121886, "longitude": -0.54489111, "weight": 0.6923697443743586, "id": 100}, {"HEALTH_FACILITY_NAME": "Otenkrang CHPS", "site_id": 3845, "HEALTH_FACILITY_LOCALITY": "Agona West Municipal", "latitude": 5.71901867, "longitude": -0.8300945, "weight": 0.7532678632712375, "id": 101}, {"HEALTH_FACILITY_NAME": "Mansokwaa CHPS", "site_id": 3844, "HEALTH_FACILITY_LOCALITY": "Agona West Municipal", "latitude": 5.577862164, "longitude": -0.884558416, "weight": 0.8917718431622312, "id": 102}, {"HEALTH_FACILITY_NAME": "Edukrom CHPS", "site_id": 3842, "HEALTH_FACILITY_LOCALITY": "Agona West Municipal", "latitude": 5.68193084, "longitude": -0.81185656, "weight": 0.75867643097449, "id": 103}, {"HEALTH_FACILITY_NAME": "Armah CHPS", "site_id": 3841, "HEALTH_FACILITY_LOCALITY": "Agona West Municipal", "latitude": 5.60670219, "longitude": -0.74740041, "weight": 0.7553026687793779, "id": 104}, {"HEALTH_FACILITY_NAME": "Amponsah CHPS", "site_id": 3840, "HEALTH_FACILITY_LOCALITY": "Agona West Municipal", "latitude": 5.56245, "longitude": -0.72424, "weight": 0.7717778737697557, "id": 105}, {"HEALTH_FACILITY_NAME": "Agona West Municipal HSP", "site_id": 3839, "HEALTH_FACILITY_LOCALITY": "Agona West Municipal", "latitude": 5.535948642, "longitude": -0.692151375, "weight": 0.7703243380486713, "id": 106}, {"HEALTH_FACILITY_NAME": "Agona Nyarkrom HC", "site_id": 3838, "HEALTH_FACILITY_LOCALITY": "Agona West Municipal", "latitude": 5.60858321, "longitude": -0.79678136, "weight": 0.794824521968858, "id": 107}, {"HEALTH_FACILITY_NAME": "Kwansakrom CHPS", "site_id": 3837, "HEALTH_FACILITY_LOCALITY": "Agona East District", "latitude": 5.54424259, "longitude": -0.67951836, "weight": 0.7543513827711473, "id": 108}, {"HEALTH_FACILITY_NAME": "Asafo HC Agona East", "site_id": 3836, "HEALTH_FACILITY_LOCALITY": "Agona East District", "latitude": 5.552063, "longitude": -0.662627, "weight": 0.7358725436439425, "id": 109}, {"HEALTH_FACILITY_NAME": "Agona Nsabaa HC", "site_id": 3835, "HEALTH_FACILITY_LOCALITY": "Agona East District", "latitude": 5.65287094, "longitude": -0.75603106, "weight": 0.7287729587904411, "id": 110}, {"HEALTH_FACILITY_NAME": "Agona Mansofo CHPS", "site_id": 3834, "HEALTH_FACILITY_LOCALITY": "Agona East District", "latitude": 5.602200803, "longitude": -0.700019207, "weight": 0.7214043300097494, "id": 111}, {"HEALTH_FACILITY_NAME": "Yarewa CHPS", "site_id": 3833, "HEALTH_FACILITY_LOCALITY": "Achiase District", "latitude": 5.837004768, "longitude": -0.989523926, "weight": 0.8606884693008816, "id": 112}, {"HEALTH_FACILITY_NAME": "Mukyia CHPS", "site_id": 3804, "HEALTH_FACILITY_LOCALITY": "Akyemansa District", "latitude": 6.068839108, "longitude": -1.053207737, "weight": 0.8906611398604641, "id": 113}, {"HEALTH_FACILITY_NAME": "Mofram CHPS", "site_id": 3803, "HEALTH_FACILITY_LOCALITY": "Asene Akroso Manso District", "latitude": 5.80559779, "longitude": -0.86007472, "weight": 0.738579191757275, "id": 114}, {"HEALTH_FACILITY_NAME": "Kokobeng Epicenter CHPS", "site_id": 3802, "HEALTH_FACILITY_LOCALITY": "Achiase District", "latitude": 5.853493933, "longitude": -0.912618427, "weight": 0.7740463807641443, "id": 115}, {"HEALTH_FACILITY_NAME": "Gyaha CHPS", "site_id": 3801, "HEALTH_FACILITY_LOCALITY": "Akyemansa District", "latitude": 6.058325652, "longitude": -0.97363101, "weight": 0.8027226204088292, "id": 116}, {"HEALTH_FACILITY_NAME": "Bantama CHPS", "site_id": 3800, "HEALTH_FACILITY_LOCALITY": "Asene Akroso Manso District", "latitude": 5.73039535, "longitude": -0.75438621, "weight": 0.6758681784712216, "id": 117}, {"HEALTH_FACILITY_NAME": "Ayinase HC", "site_id": 3799, "HEALTH_FACILITY_LOCALITY": "Akyemansa District", "latitude": 5.994344, "longitude": -1.051988, "weight": 0.8935570820566899, "id": 118}, {"HEALTH_FACILITY_NAME": "Apinto CHPS", "site_id": 3797, "HEALTH_FACILITY_LOCALITY": "Asene Akroso Manso District", "latitude": 5.76877729, "longitude": -0.86598921, "weight": 0.7616684616379227, "id": 119}, {"HEALTH_FACILITY_NAME": "Akwatia CHPS", "site_id": 3796, "HEALTH_FACILITY_LOCALITY": "Denkyembour District", "latitude": 6.042303248, "longitude": -0.814316276, "weight": 0.6271081660282256, "id": 120}, {"HEALTH_FACILITY_NAME": "Nyankomase (Achiase) CHPS", "site_id": 3794, "HEALTH_FACILITY_LOCALITY": "Achiase District", "latitude": 5.811109849, "longitude": -1.064347042, "weight": 0.9483385616304464, "id": 121}, {"HEALTH_FACILITY_NAME": "Osoroase CHPS", "site_id": 3793, "HEALTH_FACILITY_LOCALITY": "Birim South District", "latitude": 5.848607082, "longitude": -0.964443437, "weight": 0.8303388456459802, "id": 122}, {"HEALTH_FACILITY_NAME": "Teshieman CHPS", "site_id": 3792, "HEALTH_FACILITY_LOCALITY": "Achiase District", "latitude": 5.794732228, "longitude": -0.95018281, "weight": 0.8353443058201404, "id": 123}, {"HEALTH_FACILITY_NAME": "Anamase CHPS", "site_id": 3791, "HEALTH_FACILITY_LOCALITY": "Birim South District", "latitude": 5.884303182, "longitude": -0.910453688, "weight": 0.761743878536599, "id": 124}, {"HEALTH_FACILITY_NAME": "Akortekrom CHPS", "site_id": 3789, "HEALTH_FACILITY_LOCALITY": "Birim South District", "latitude": 5.869724933, "longitude": -1.148962082, "weight": 1.0217540344564642, "id": 125}, {"HEALTH_FACILITY_NAME": "Akim Bieni CHPS", "site_id": 3788, "HEALTH_FACILITY_LOCALITY": "Achiase District", "latitude": 5.873573025, "longitude": -0.939941793, "weight": 0.7964035106672164, "id": 126}, {"HEALTH_FACILITY_NAME": "Adjobue CHPS", "site_id": 3787, "HEALTH_FACILITY_LOCALITY": "Akyemansa District", "latitude": 5.961331, "longitude": -1.078036, "weight": 0.9264269534381795, "id": 127}, {"HEALTH_FACILITY_NAME": "Achiase HC", "site_id": 3786, "HEALTH_FACILITY_LOCALITY": "Achiase District", "latitude": 5.84433426, "longitude": -1.000359032, "weight": 0.8697387110590478, "id": 128}, {"HEALTH_FACILITY_NAME": "Takrowase CHPS", "site_id": 3782, "HEALTH_FACILITY_LOCALITY": "Denkyembour District", "latitude": 6.024367719, "longitude": -0.885446865, "weight": 0.7069807830452216, "id": 129}, {"HEALTH_FACILITY_NAME": "Sadams CHPS", "site_id": 3781, "HEALTH_FACILITY_LOCALITY": "Denkyembour District", "latitude": 6.045245058, "longitude": -0.80506902, "weight": 0.6167165887598868, "id": 130}, {"HEALTH_FACILITY_NAME": "Kusi CHPS", "site_id": 3779, "HEALTH_FACILITY_LOCALITY": "Denkyembour District", "latitude": 6.045380286, "longitude": -0.863386167, "weight": 0.6811979273644998, "id": 131}, {"HEALTH_FACILITY_NAME": "Kubease Mega CHPS", "site_id": 3778, "HEALTH_FACILITY_LOCALITY": "Kwaebibirem Municipal", "latitude": 6.09208433, "longitude": -0.83832058, "weight": 0.6531165057885977, "id": 132}, {"HEALTH_FACILITY_NAME": "Dwenase HC", "site_id": 3777, "HEALTH_FACILITY_LOCALITY": "Denkyembour District", "latitude": 6.090917153, "longitude": -0.696293731, "weight": 0.4959563767459428, "id": 133}, {"HEALTH_FACILITY_NAME": "Asuboa CHPS", "site_id": 3761, "HEALTH_FACILITY_LOCALITY": "Asene Akroso Manso District", "latitude": 5.88628907, "longitude": -0.871711961, "weight": 0.7199454170722764, "id": 134}, {"HEALTH_FACILITY_NAME": "Anweaso CHPS", "site_id": 3759, "HEALTH_FACILITY_LOCALITY": "Denkyembour District", "latitude": 5.993948002, "longitude": -0.8585361, "weight": 0.6807694951960382, "id": 135}, {"HEALTH_FACILITY_NAME": "Akim Sakyikrom CHPS", "site_id": 3758, "HEALTH_FACILITY_LOCALITY": "Denkyembour District", "latitude": 6.06849916, "longitude": -0.74730727, "weight": 0.5520401802436895, "id": 136}, {"HEALTH_FACILITY_NAME": "Abodom (Kwaebibirem) CHPS", "site_id": 3757, "HEALTH_FACILITY_LOCALITY": "Kwaebibirem Municipal", "latitude": 6.164394601, "longitude": -0.818653841, "weight": 0.6390696502737468, "id": 137}, {"HEALTH_FACILITY_NAME": "Yaw Duodu CHPS", "site_id": 3733, "HEALTH_FACILITY_LOCALITY": "Akuapim South District", "latitude": 5.847514437, "longitude": -0.230237295, "weight": 0.24968694174708397, "id": 138}, {"HEALTH_FACILITY_NAME": "Trotor CHPS", "site_id": 3732, "HEALTH_FACILITY_LOCALITY": "Suhum Municipal", "latitude": 6.087930407, "longitude": -0.40452762, "weight": 0.1734005293889242, "id": 139}, {"HEALTH_FACILITY_NAME": "Nsakye CHPS", "site_id": 3730, "HEALTH_FACILITY_LOCALITY": "Akuapim South District", "latitude": 5.790131402, "longitude": -0.234462856, "weight": 0.3127058737917426, "id": 140}, {"HEALTH_FACILITY_NAME": "Nmgbertsonya CHPs", "site_id": 3729, "HEALTH_FACILITY_LOCALITY": "Suhum Municipal", "latitude": 6.029625366, "longitude": -0.453137565, "weight": 0.2313083036574324, "id": 141}, {"HEALTH_FACILITY_NAME": "Asheresu CHPS", "site_id": 3728, "HEALTH_FACILITY_LOCALITY": "Nsawam Adoagyire Municipal", "latitude": 5.84523129, "longitude": -0.271330641, "weight": 0.25263140118991234, "id": 142}, {"HEALTH_FACILITY_NAME": "Mentukwa (Fahiakor) CHPS", "site_id": 3727, "HEALTH_FACILITY_LOCALITY": "Akuapim South District", "latitude": 5.894401435, "longitude": -0.25170975, "weight": 0.19703310967211807, "id": 143}, {"HEALTH_FACILITY_NAME": "Konkonuru CHPS", "site_id": 3724, "HEALTH_FACILITY_LOCALITY": "Akuapim South District", "latitude": 5.819293043, "longitude": -0.195259176, "weight": 0.28623196898099024, "id": 144}, {"HEALTH_FACILITY_NAME": "Jato CHPS", "site_id": 3721, "HEALTH_FACILITY_LOCALITY": "Suhum Municipal", "latitude": 6.031082069, "longitude": -0.381267151, "weight": 0.15381652378490032, "id": 145}, {"HEALTH_FACILITY_NAME": "Fotobi CHPS", "site_id": 3720, "HEALTH_FACILITY_LOCALITY": "Nsawam Adoagyire Municipal", "latitude": 5.81428489, "longitude": -0.275595115, "weight": 0.28715662719513085, "id": 146}, {"HEALTH_FACILITY_NAME": "Berekuso CHPS", "site_id": 3719, "HEALTH_FACILITY_LOCALITY": "Ga North Municipal", "latitude": 5.753364282, "longitude": -0.230575644, "weight": 0.3535370319564209, "id": 147}, {"HEALTH_FACILITY_NAME": "Amanhyia CHPS", "site_id": 3716, "HEALTH_FACILITY_LOCALITY": "Suhum Municipal", "latitude": 6.045201449, "longitude": -0.414063571, "weight": 0.18560711339738403, "id": 148}, {"HEALTH_FACILITY_NAME": "Akorabo HC", "site_id": 3715, "HEALTH_FACILITY_LOCALITY": "Suhum Municipal", "latitude": 6.023472605, "longitude": -0.355896561, "weight": 0.13055164184028045, "id": 149}, {"HEALTH_FACILITY_NAME": "Agyementi CHPS", "site_id": 3713, "HEALTH_FACILITY_LOCALITY": "Akuapim South District", "latitude": 5.793810732, "longitude": -0.196321913, "weight": 0.31363913294209517, "id": 150}, {"HEALTH_FACILITY_NAME": "Obotweri CHPs", "site_id": 3711, "HEALTH_FACILITY_LOCALITY": "Nsawam Adoagyire Municipal", "latitude": 5.859066098, "longitude": -0.281799469, "weight": 0.2389175379338698, "id": 151}, {"HEALTH_FACILITY_NAME": "Kwahu Asubone CHPS", "site_id": 3709, "HEALTH_FACILITY_LOCALITY": "Kwahu South District", "latitude": 6.697151607, "longitude": -0.4660355, "weight": 0.7314135778628557, "id": 152}, {"HEALTH_FACILITY_NAME": "Krabokese CHPS", "site_id": 3708, "HEALTH_FACILITY_LOCALITY": "Ayensuano District", "latitude": 5.878014482, "longitude": -0.429877123, "weight": 0.2941850611828318, "id": 153}, {"HEALTH_FACILITY_NAME": "Dago CHPs", "site_id": 3707, "HEALTH_FACILITY_LOCALITY": "Akuapim South District", "latitude": 5.870781185, "longitude": -0.265156167, "weight": 0.22387259387697678, "id": 154}, {"HEALTH_FACILITY_NAME": "Somanya PC", "site_id": 3705, "HEALTH_FACILITY_LOCALITY": "Yilo Krobo District", "latitude": 6.09763, "longitude": -0.01808, "weight": 0.2567243859356306, "id": 155}, {"HEALTH_FACILITY_NAME": "Konkoney CHPS", "site_id": 3694, "HEALTH_FACILITY_LOCALITY": "Upper Manya Krobo District", "latitude": 6.401659597, "longitude": -0.24093294, "weight": 0.3640578075744895, "id": 156}, {"HEALTH_FACILITY_NAME": "Fefe CHPS", "site_id": 3693, "HEALTH_FACILITY_LOCALITY": "Upper Manya Krobo District", "latitude": 6.407229797, "longitude": -0.197886085, "weight": 0.37435526923428775, "id": 157}, {"HEALTH_FACILITY_NAME": "Esuom CHPS", "site_id": 3692, "HEALTH_FACILITY_LOCALITY": "Upper Manya Krobo District", "latitude": 6.26709395, "longitude": -0.16119474, "weight": 0.23591147267595602, "id": 158}, {"HEALTH_FACILITY_NAME": "Dawa CHPS", "site_id": 3691, "HEALTH_FACILITY_LOCALITY": "Suhum Municipal", "latitude": 6.122687544, "longitude": -0.402060972, "weight": 0.17865105055955863, "id": 159}, {"HEALTH_FACILITY_NAME": "Akohia CHPS", "site_id": 3685, "HEALTH_FACILITY_LOCALITY": "Upper Manya Krobo District", "latitude": 6.416379905, "longitude": -0.099334743, "weight": 0.4145835897480423, "id": 160}, {"HEALTH_FACILITY_NAME": "Aketebuor CHPS", "site_id": 3684, "HEALTH_FACILITY_LOCALITY": "Upper Manya Krobo District", "latitude": 6.231879331, "longitude": -0.139934936, "weight": 0.21336190348224585, "id": 161}, {"HEALTH_FACILITY_NAME": "Akanteng CHPS", "site_id": 3683, "HEALTH_FACILITY_LOCALITY": "West Akim Municipal", "latitude": 6.01215977, "longitude": -0.698344845, "weight": 0.5023054978661818, "id": 162}, {"HEALTH_FACILITY_NAME": "Aframase CHPS", "site_id": 3681, "HEALTH_FACILITY_LOCALITY": "Upper Manya Krobo District", "latitude": 6.339229435, "longitude": -0.084968472, "weight": 0.3461027379581258, "id": 163}, {"HEALTH_FACILITY_NAME": "Abesre CHPS", "site_id": 3679, "HEALTH_FACILITY_LOCALITY": "Upper Manya Krobo District", "latitude": 6.421083203, "longitude": -0.215830968, "weight": 0.3871443224448462, "id": 164}, {"HEALTH_FACILITY_NAME": "Omenako CHPS", "site_id": 3676, "HEALTH_FACILITY_LOCALITY": "Suhum Municipal", "latitude": 6.070565854, "longitude": -0.469408821, "weight": 0.24439946247944494, "id": 165}, {"HEALTH_FACILITY_NAME": "Okanta CHPS", "site_id": 3675, "HEALTH_FACILITY_LOCALITY": "Suhum Municipal", "latitude": 6.022085986, "longitude": -0.489499647, "weight": 0.2724184344933958, "id": 166}, {"HEALTH_FACILITY_NAME": "Kwahu Nteso CHPS", "site_id": 3663, "HEALTH_FACILITY_LOCALITY": "Kwahu East District", "latitude": 6.638380397, "longitude": -0.642559827, "weight": 0.7625642969667848, "id": 167}, {"HEALTH_FACILITY_NAME": "Kwahu Bokruwa CHPS", "site_id": 3662, "HEALTH_FACILITY_LOCALITY": "Kwahu East District", "latitude": 6.671225839, "longitude": -0.6923576, "weight": 0.8242130904331237, "id": 168}, {"HEALTH_FACILITY_NAME": "Stadium CHPS", "site_id": 3660, "HEALTH_FACILITY_LOCALITY": "Kwaebibirem Municipal", "latitude": 6.099724, "longitude": -0.831037, "weight": 0.645391944727101, "id": 169}, {"HEALTH_FACILITY_NAME": "Manso HC", "site_id": 3648, "HEALTH_FACILITY_LOCALITY": "Asene Akroso Manso District", "latitude": 5.902407741, "longitude": -0.875739527, "weight": 0.7193430256113406, "id": 170}, {"HEALTH_FACILITY_NAME": "Badukrom CHPS", "site_id": 3645, "HEALTH_FACILITY_LOCALITY": "Asene Akroso Manso District", "latitude": 5.786097536, "longitude": -0.831692861, "weight": 0.7191289686817313, "id": 171}, {"HEALTH_FACILITY_NAME": "Atiakama CHPS", "site_id": 3644, "HEALTH_FACILITY_LOCALITY": "Asene Akroso Manso District", "latitude": 5.942543474, "longitude": -0.828032776, "weight": 0.6573717918078986, "id": 172}, {"HEALTH_FACILITY_NAME": "Asantemang CHPS", "site_id": 3643, "HEALTH_FACILITY_LOCALITY": "Asene Akroso Manso District", "latitude": 5.862355735, "longitude": -0.852785213, "weight": 0.7081463787330791, "id": 173}, {"HEALTH_FACILITY_NAME": "Old Abirem CHPS", "site_id": 3641, "HEALTH_FACILITY_LOCALITY": "Birim North District", "latitude": 6.295863518, "longitude": -1.008069028, "weight": 0.8760356964784934, "id": 174}, {"HEALTH_FACILITY_NAME": "Esaase CHPS", "site_id": 3629, "HEALTH_FACILITY_LOCALITY": "Kwahu West Municipal", "latitude": 6.584555058, "longitude": -0.834711807, "weight": 0.8608749770364416, "id": 175}, {"HEALTH_FACILITY_NAME": "Obosono CHPS", "site_id": 3627, "HEALTH_FACILITY_LOCALITY": "Akuapim South District", "latitude": 5.897752159, "longitude": -0.275871238, "weight": 0.19563555065727628, "id": 176}, {"HEALTH_FACILITY_NAME": "Osonson CHPS", "site_id": 3617, "HEALTH_FACILITY_LOCALITY": "Upper Manya Krobo District", "latitude": 6.319561957, "longitude": -0.219631365, "weight": 0.27504793341336514, "id": 177}, {"HEALTH_FACILITY_NAME": "Aboabo (Ayensuano) CHPS", "site_id": 3616, "HEALTH_FACILITY_LOCALITY": "Ayensuano District", "latitude": 5.99777, "longitude": -0.39627, "weight": 0.18316528964689366, "id": 178}, {"HEALTH_FACILITY_NAME": "Aboabo (Kwaebibirem) Chps", "site_id": 3615, "HEALTH_FACILITY_LOCALITY": "Denkyembour District", "latitude": 6.089076, "longitude": -0.937064, "weight": 0.7622863201093186, "id": 179}, {"HEALTH_FACILITY_NAME": "Bemenase CHPS", "site_id": 3614, "HEALTH_FACILITY_LOCALITY": "Denkyembour District", "latitude": 6.011327501, "longitude": -0.771860486, "weight": 0.5831756167128743, "id": 180}, {"HEALTH_FACILITY_NAME": "Akuni CHPS", "site_id": 3613, "HEALTH_FACILITY_LOCALITY": "Okere District", "latitude": 6.04407663, "longitude": -0.03523266, "weight": 0.23833424891313054, "id": 181}, {"HEALTH_FACILITY_NAME": "Asikasu (New Juabeng) CHPS", "site_id": 3598, "HEALTH_FACILITY_LOCALITY": "New Juaben North Municipal", "latitude": 6.185468818, "longitude": -0.310957919, "weight": 0.14266201623157937, "id": 182}, {"HEALTH_FACILITY_NAME": "Kwasi Nyarko CHPS", "site_id": 3597, "HEALTH_FACILITY_LOCALITY": "Upper West Akim District", "latitude": 5.807758869, "longitude": -0.4317175, "weight": 0.3561396835598145, "id": 183}, {"HEALTH_FACILITY_NAME": "Ntowkrom CHPS", "site_id": 3596, "HEALTH_FACILITY_LOCALITY": "Ayensuano District", "latitude": 5.887657365, "longitude": -0.484238477, "weight": 0.33143186775711864, "id": 184}, {"HEALTH_FACILITY_NAME": "Esaso CHPS", "site_id": 3595, "HEALTH_FACILITY_LOCALITY": "Upper West Akim District", "latitude": 5.764222129, "longitude": -0.697374022, "weight": 0.6026185080144482, "id": 185}, {"HEALTH_FACILITY_NAME": "Tweapease (Birim North) CHPS", "site_id": 3567, "HEALTH_FACILITY_LOCALITY": "Birim North District", "latitude": 6.386479016, "longitude": -0.905230247, "weight": 0.8053017572490683, "id": 186}, {"HEALTH_FACILITY_NAME": "Nwinso CHPS", "site_id": 3566, "HEALTH_FACILITY_LOCALITY": "Birim North District", "latitude": 6.462415281, "longitude": -0.943681611, "weight": 0.8817230984482641, "id": 187}, {"HEALTH_FACILITY_NAME": "Larbikrom Kwaebibirem CHPS", "site_id": 3565, "HEALTH_FACILITY_LOCALITY": "Kwaebibirem Municipal", "latitude": 6.354957114, "longitude": -0.955621853, "weight": 0.8424436160639869, "id": 188}, {"HEALTH_FACILITY_NAME": "Awuronsua Kwakwadum CHPS", "site_id": 3564, "HEALTH_FACILITY_LOCALITY": "Atiwa East District", "latitude": 6.43797923, "longitude": -0.77068824, "weight": 0.705022799653537, "id": 189}, {"HEALTH_FACILITY_NAME": "Pepease HC", "site_id": 3557, "HEALTH_FACILITY_LOCALITY": "Kwahu East District", "latitude": 6.69208, "longitude": -0.74268, "weight": 0.8764398944744304, "id": 190}, {"HEALTH_FACILITY_NAME": "Pakro HC", "site_id": 26, "HEALTH_FACILITY_LOCALITY": "Akuapim South District", "latitude": 5.90686, "longitude": -0.31331, "weight": 0.1967193164560188, "id": 191}, {"HEALTH_FACILITY_NAME": "Oyoko (New Juaben) HC", "site_id": 64, "HEALTH_FACILITY_LOCALITY": "New Juaben North Municipal", "latitude": 6.14537, "longitude": -0.28804, "weight": 0.09158453790164044, "id": 192}, {"HEALTH_FACILITY_NAME": "Osenase HC", "site_id": 25, "HEALTH_FACILITY_LOCALITY": "West Akim Municipal", "latitude": 5.96027, "longitude": -0.75738, "weight": 0.5767516279646248, "id": 193}, {"HEALTH_FACILITY_NAME": "Okrakwadjo HC", "site_id": 45, "HEALTH_FACILITY_LOCALITY": "Okere District", "latitude": 6.10856, "longitude": -0.10571, "weight": 0.16315207981577914, "id": 194}, {"HEALTH_FACILITY_NAME": "Obregyima HC", "site_id": 3544, "HEALTH_FACILITY_LOCALITY": "Ayensuano District", "latitude": 5.87627, "longitude": -0.37203, "weight": 0.2564697105247593, "id": 195}, {"HEALTH_FACILITY_NAME": "Oborpa HC", "site_id": 3542, "HEALTH_FACILITY_LOCALITY": "Lower Manya Krobo District", "latitude": 6.17332, "longitude": -0.08055, "weight": 0.21687870592633085, "id": 196}, {"HEALTH_FACILITY_NAME": "Akropong CHPS", "site_id": 3537, "HEALTH_FACILITY_LOCALITY": "Atiwa West District", "latitude": 6.19329, "longitude": -0.6591, "weight": 0.473540041146659, "id": 197}, {"HEALTH_FACILITY_NAME": "Adaniagya CHPS", "site_id": 47, "HEALTH_FACILITY_LOCALITY": "New Juaben North Municipal", "latitude": 6.13381, "longitude": -0.28859, "weight": 0.08090495823610308, "id": 198}, {"HEALTH_FACILITY_NAME": "Nkurakan HC", "site_id": 48, "HEALTH_FACILITY_LOCALITY": "Yilo Krobo District", "latitude": 6.12457, "longitude": -0.21784, "weight": 0.06687467412139679, "id": 199}, {"HEALTH_FACILITY_NAME": "Oterkpolu HC", "site_id": 50, "HEALTH_FACILITY_LOCALITY": "Yilo Krobo District", "latitude": 6.20332, "longitude": -0.12435, "weight": 0.1996003421449898, "id": 200}, {"HEALTH_FACILITY_NAME": "Okorase CHPS", "site_id": 51, "HEALTH_FACILITY_LOCALITY": "Akuapim North Municipal", "latitude": 6.038842492, "longitude": -0.260433578, "weight": 0.03949239789287662, "id": 201}, {"HEALTH_FACILITY_NAME": "Obawale HC", "site_id": 52, "HEALTH_FACILITY_LOCALITY": "Yilo Krobo District", "latitude": 6.2106358, "longitude": -0.19372486, "weight": 0.16436110186506625, "id": 202}, {"HEALTH_FACILITY_NAME": "Boti HC", "site_id": 3492, "HEALTH_FACILITY_LOCALITY": "Yilo Krobo District", "latitude": 6.20937, "longitude": -0.21634, "weight": 0.15547550433221954, "id": 203}, {"HEALTH_FACILITY_NAME": "Apoli HC", "site_id": 3491, "HEALTH_FACILITY_LOCALITY": "Birim South District", "latitude": 5.9441, "longitude": -1.15138, "weight": 1.00948530934074, "id": 204}, {"HEALTH_FACILITY_NAME": "Ayirebi HC", "site_id": 60, "HEALTH_FACILITY_LOCALITY": "Akyemansa District", "latitude": 6.08482, "longitude": -1.12104, "weight": 0.9658227130065642, "id": 205}, {"HEALTH_FACILITY_NAME": "Amponsahene CHPS", "site_id": 3483, "HEALTH_FACILITY_LOCALITY": "Ayensuano District", "latitude": 5.92086, "longitude": -0.36695, "weight": 0.21282766069699113, "id": 206}, {"HEALTH_FACILITY_NAME": "Yokwenor CHPS", "site_id": 3268, "HEALTH_FACILITY_LOCALITY": "Lower Manya Krobo District", "latitude": 6.159615814, "longitude": 0.01524638427, "weight": 0.3075567808391648, "id": 207}, {"HEALTH_FACILITY_NAME": "Yaw Donkor CHPS", "site_id": 3251, "HEALTH_FACILITY_LOCALITY": "Asene Akroso Manso District", "latitude": 5.75949854, "longitude": -0.79736085, "weight": 0.6993029758749154, "id": 208}, {"HEALTH_FACILITY_NAME": "Twumwusu CHPS", "site_id": 3168, "HEALTH_FACILITY_LOCALITY": "Kwaebibirem Municipal", "latitude": 6.149841089, "longitude": -0.724314795, "weight": 0.533423063114666, "id": 209}, {"HEALTH_FACILITY_NAME": "Torgorme HC", "site_id": 3151, "HEALTH_FACILITY_LOCALITY": "North Tongu District", "latitude": 6.11691628, "longitude": 0.13739679, "weight": 0.4301288503797606, "id": 210}, {"HEALTH_FACILITY_NAME": "Tontro CHPS", "site_id": 3137, "HEALTH_FACILITY_LOCALITY": "Abuakwa North District", "latitude": 6.2731937, "longitude": -0.38513445, "weight": 0.2684351990483358, "id": 211}, {"HEALTH_FACILITY_NAME": "Tawora CHPS", "site_id": 3097, "HEALTH_FACILITY_LOCALITY": "Agona East District", "latitude": 5.59198356, "longitude": -0.66547334, "weight": 0.7039345797103792, "id": 212}, {"HEALTH_FACILITY_NAME": "Tawiakwa CHPS", "site_id": 3096, "HEALTH_FACILITY_LOCALITY": "Agona East District", "latitude": 5.718321975, "longitude": -0.678403431, "weight": 0.6163796846807574, "id": 213}, {"HEALTH_FACILITY_NAME": "Takyi CHPS", "site_id": 3078, "HEALTH_FACILITY_LOCALITY": "Achiase District", "latitude": 5.810802827, "longitude": -1.128014057, "weight": 1.0158025498234238, "id": 214}, {"HEALTH_FACILITY_NAME": "Suhum HC", "site_id": 3072, "HEALTH_FACILITY_LOCALITY": "Suhum Municipal", "latitude": 6.04084105, "longitude": -0.44329581, "weight": 0.21832242237210636, "id": 215}, {"HEALTH_FACILITY_NAME": "Suponso CHPS", "site_id": 3064, "HEALTH_FACILITY_LOCALITY": "Asene Akroso Manso District", "latitude": 5.92691102, "longitude": -0.80236298, "weight": 0.6338497693162236, "id": 216}, {"HEALTH_FACILITY_NAME": "Sukwa CHPS TEST", "site_id": 3058, "HEALTH_FACILITY_LOCALITY": "Kwahu East District", "latitude": 6.655416772, "longitude": -0.95616807, "weight": 1.0140279861870765, "id": 217}, {"HEALTH_FACILITY_NAME": "Suhyen CHPS", "site_id": 3051, "HEALTH_FACILITY_LOCALITY": "New Juaben North Municipal", "latitude": 6.164858781, "longitude": -0.314966707, "weight": 0.1257439260138087, "id": 218}, {"HEALTH_FACILITY_NAME": "St Martin's De-Porres HSP", "site_id": 3020, "HEALTH_FACILITY_LOCALITY": "Lower Manya Krobo District", "latitude": 6.14606252, "longitude": 0.01357039, "weight": 0.3014154373713632, "id": 219}, {"HEALTH_FACILITY_NAME": "St Joseph CL CHAG", "site_id": 3015, "HEALTH_FACILITY_LOCALITY": "Kwahu East District", "latitude": 6.64950654, "longitude": -0.666281483, "weight": 0.7877917027423504, "id": 220}, {"HEALTH_FACILITY_NAME": "Sokode Juaso CHPS", "site_id": 2991, "HEALTH_FACILITY_LOCALITY": "Abuakwa North District", "latitude": 6.182323654, "longitude": -0.331726462, "weight": 0.15230148223241594, "id": 221}, {"HEALTH_FACILITY_NAME": "Sisiamang CHPS", "site_id": 2987, "HEALTH_FACILITY_LOCALITY": "Upper Manya Krobo District", "latitude": 6.438225367, "longitude": -0.174073002, "weight": 0.41272809959695533, "id": 222}, {"HEALTH_FACILITY_NAME": "Senchi Ferry HC", "site_id": 2963, "HEALTH_FACILITY_LOCALITY": "Asuogyaman District", "latitude": 6.20624675, "longitude": 0.09184867, "weight": 0.4048363824014152, "id": 223}, {"HEALTH_FACILITY_NAME": "Sedorm CHPS", "site_id": 2952, "HEALTH_FACILITY_LOCALITY": "Asuogyaman District", "latitude": 6.34223268, "longitude": 0.0025197, "weight": 0.40768689913319733, "id": 224}, {"HEALTH_FACILITY_NAME": "Samlesi CHPS", "site_id": 2936, "HEALTH_FACILITY_LOCALITY": "Upper Manya Krobo District", "latitude": 6.24029465, "longitude": -0.30683796, "weight": 0.19637339000342022, "id": 225}, {"HEALTH_FACILITY_NAME": "Akyem Sagyimase CHPS", "site_id": 2923, "HEALTH_FACILITY_LOCALITY": "Abuakwa South District", "latitude": 6.236937327, "longitude": -0.518502372, "weight": 0.349664097352562, "id": 226}, {"HEALTH_FACILITY_NAME": "Potsin CHPS", "site_id": 2868, "HEALTH_FACILITY_LOCALITY": "Gomoa East District", "latitude": 5.454509, "longitude": -0.59304, "weight": 0.7827047248024581, "id": 227}, {"HEALTH_FACILITY_NAME": "Gomoa Potsin PC", "site_id": 2867, "HEALTH_FACILITY_LOCALITY": "Gomoa East District", "latitude": 5.454508765, "longitude": -0.593038322, "weight": 0.7827040459832704, "id": 228}, {"HEALTH_FACILITY_NAME": "Ponponya CHPS", "site_id": 2862, "HEALTH_FACILITY_LOCALITY": "Yilo Krobo District", "latitude": 6.16160865, "longitude": -0.13315561, "weight": 0.16137177266035663, "id": 229}, {"HEALTH_FACILITY_NAME": "Osudoku HC", "site_id": 2829, "HEALTH_FACILITY_LOCALITY": "Shai Osudoku District", "latitude": 6.09117815, "longitude": 0.19222283, "weight": 0.48845674938818767, "id": 230}, {"HEALTH_FACILITY_NAME": "Opersika HC", "site_id": 2814, "HEALTH_FACILITY_LOCALITY": "Yilo Krobo District", "latitude": 6.21836904, "longitude": -0.24396089, "weight": 0.1613442323347014, "id": 231}, {"HEALTH_FACILITY_NAME": "Pankese CHPS", "site_id": 2809, "HEALTH_FACILITY_LOCALITY": "Birim North District", "latitude": 6.50595847, "longitude": -0.84242378, "weight": 0.8132868525197268, "id": 232}, {"HEALTH_FACILITY_NAME": "Old Ntronang CHPS", "site_id": 2804, "HEALTH_FACILITY_LOCALITY": "Kwaebibirem Municipal", "latitude": 6.365195163, "longitude": -0.876676849, "weight": 0.7666934359661801, "id": 233}, {"HEALTH_FACILITY_NAME": "Oyoko Zongo CHPS", "site_id": 2800, "HEALTH_FACILITY_LOCALITY": "New Juaben North Municipal", "latitude": 6.13298513, "longitude": -0.28789332, "weight": 0.07971972026263355, "id": 234}, {"HEALTH_FACILITY_NAME": "Owurakessim HC", "site_id": 2797, "HEALTH_FACILITY_LOCALITY": "West Akim Municipal", "latitude": 5.814632797, "longitude": -0.65828872, "weight": 0.5358046828002438, "id": 235}, {"HEALTH_FACILITY_NAME": "Oworam CHPS", "site_id": 2795, "HEALTH_FACILITY_LOCALITY": "West Akim Municipal", "latitude": 5.93958149, "longitude": -0.6045917, "weight": 0.42062173875179565, "id": 236}, {"HEALTH_FACILITY_NAME": "Otwereso CHPS", "site_id": 2793, "HEALTH_FACILITY_LOCALITY": "Akyemansa District", "latitude": 6.015475173, "longitude": -1.147763065, "weight": 0.9973715207716581, "id": 237}, {"HEALTH_FACILITY_NAME": "Otwakwa CHPS", "site_id": 2790, "HEALTH_FACILITY_LOCALITY": "Agona East District", "latitude": 5.550097763, "longitude": -0.618703712, "weight": 0.7083605822884703, "id": 238}, {"HEALTH_FACILITY_NAME": "Otoase CHPS", "site_id": 2785, "HEALTH_FACILITY_LOCALITY": "Ayensuano District", "latitude": 5.856751, "longitude": -0.421125, "weight": 0.3056488474169992, "id": 239}, {"HEALTH_FACILITY_NAME": "Osuwem CHPS", "site_id": 2782, "HEALTH_FACILITY_LOCALITY": "Shai Osudoku District", "latitude": 6.03176835, "longitude": 0.17548079, "weight": 0.47167533299106934, "id": 240}, {"HEALTH_FACILITY_NAME": "Ofadaa CHPS", "site_id": 2776, "HEALTH_FACILITY_LOCALITY": "Awutu Senya West District", "latitude": 5.727785218, "longitude": -0.546525733, "weight": 0.5041474506315893, "id": 241}, {"HEALTH_FACILITY_NAME": "Obuoho CHPS", "site_id": 2760, "HEALTH_FACILITY_LOCALITY": "Ayensuano District", "latitude": 6.016253378, "longitude": -0.625525165, "weight": 0.4218485938081004, "id": 242}, {"HEALTH_FACILITY_NAME": "Old Akrade CHPS", "site_id": 2755, "HEALTH_FACILITY_LOCALITY": "Asuogyaman District", "latitude": 6.20286996, "longitude": 0.10253628, "weight": 0.4145594289760463, "id": 243}, {"HEALTH_FACILITY_NAME": "Okwenya CHPS", "site_id": 2753, "HEALTH_FACILITY_LOCALITY": "Yilo Krobo District", "latitude": 6.09536531, "longitude": 0.0344517, "weight": 0.3143871253658388, "id": 244}, {"HEALTH_FACILITY_NAME": "Okwampa CHPS", "site_id": 2748, "HEALTH_FACILITY_LOCALITY": "Awutu Senya West District", "latitude": 5.718465909, "longitude": -0.578227594, "weight": 0.5352783264433469, "id": 245}, {"HEALTH_FACILITY_NAME": "Okurase CHPS", "site_id": 2747, "HEALTH_FACILITY_LOCALITY": "Upper West Akim District", "latitude": 5.796302743, "longitude": -0.520905145, "weight": 0.42919332659312487, "id": 246}, {"HEALTH_FACILITY_NAME": "Okaikrom CHPS", "site_id": 2735, "HEALTH_FACILITY_LOCALITY": "Birim North District", "latitude": 6.27361238, "longitude": -0.99302668, "weight": 0.8533521757368021, "id": 247}, {"HEALTH_FACILITY_NAME": "Gomoa Ojobi HC", "site_id": 2734, "HEALTH_FACILITY_LOCALITY": "Gomoa East District", "latitude": 5.48037206, "longitude": -0.53131887, "weight": 0.7258543456792911, "id": 248}, {"HEALTH_FACILITY_NAME": "Oframase HC", "site_id": 2731, "HEALTH_FACILITY_LOCALITY": "Kwahu West Municipal", "latitude": 6.531888205, "longitude": -0.727832285, "weight": 0.7342915326139469, "id": 249}, {"HEALTH_FACILITY_NAME": "Nyamendam CHPS", "site_id": 2727, "HEALTH_FACILITY_LOCALITY": "Agona West Municipal", "latitude": 5.575117976, "longitude": -0.696368733, "weight": 0.7405828128478685, "id": 250}, {"HEALTH_FACILITY_NAME": "Ofoase Urban CHPS", "site_id": 2725, "HEALTH_FACILITY_LOCALITY": "Akyemansa District", "latitude": 6.168276365, "longitude": -1.14223861, "weight": 0.9947663405104875, "id": 251}, {"HEALTH_FACILITY_NAME": "Ofoase CHPS", "site_id": 2721, "HEALTH_FACILITY_LOCALITY": "Agona West Municipal", "latitude": 5.703707732, "longitude": -0.782108501, "weight": 0.7178749195322, "id": 252}, {"HEALTH_FACILITY_NAME": "Odumkyere Darmang HC", "site_id": 2710, "HEALTH_FACILITY_LOCALITY": "Upper West Akim District", "latitude": 5.86873226, "longitude": -0.54235876, "weight": 0.3956750368206655, "id": 253}, {"HEALTH_FACILITY_NAME": "Odoben HC", "site_id": 2704, "HEALTH_FACILITY_LOCALITY": "Asikuma/Odoben/Brakwa District", "latitude": 5.63284181, "longitude": -0.88556225, "weight": 0.8567102809176719, "id": 254}, {"HEALTH_FACILITY_NAME": "Odjarde CHPS", "site_id": 2702, "HEALTH_FACILITY_LOCALITY": "West Akim Municipal", "latitude": 5.821523847, "longitude": -0.726885817, "weight": 0.5978849165464672, "id": 255}, {"HEALTH_FACILITY_NAME": "Oboyambo CHPS", "site_id": 2693, "HEALTH_FACILITY_LOCALITY": "Agona East District", "latitude": 5.70930012, "longitude": -0.65242238, "weight": 0.601072047251579, "id": 256}, {"HEALTH_FACILITY_NAME": "Obodanase CHPS", "site_id": 2689, "HEALTH_FACILITY_LOCALITY": "Abuakwa North District", "latitude": 6.21979875, "longitude": -0.32683357, "weight": 0.18441292946013824, "id": 257}, {"HEALTH_FACILITY_NAME": "Nyame Nti CHPS", "site_id": 2663, "HEALTH_FACILITY_LOCALITY": "Asene Akroso Manso District", "latitude": 5.8256941, "longitude": -0.7648008, "weight": 0.6333625278353509, "id": 258}, {"HEALTH_FACILITY_NAME": "Nyafoman CHPS", "site_id": 2659, "HEALTH_FACILITY_LOCALITY": "Birim North District", "latitude": 6.433298063, "longitude": -0.946731242, "weight": 0.8694494152107122, "id": 259}, {"HEALTH_FACILITY_NAME": "Ntomem CHPS", "site_id": 2640, "HEALTH_FACILITY_LOCALITY": "Kwahu South District", "latitude": 6.546252398, "longitude": -0.602402725, "weight": 0.6539515771254295, "id": 260}, {"HEALTH_FACILITY_NAME": "Nsutapong HC", "site_id": 2629, "HEALTH_FACILITY_LOCALITY": "Yilo Krobo District", "latitude": 6.276278047, "longitude": -0.2791691844, "weight": 0.22782086527411471, "id": 261}, {"HEALTH_FACILITY_NAME": "Nsuansa (Agona West) CHPS", "site_id": 2619, "HEALTH_FACILITY_LOCALITY": "Agona West Municipal", "latitude": 5.72966556, "longitude": -0.85306701, "weight": 0.7692475848181207, "id": 262}, {"HEALTH_FACILITY_NAME": "Noyem CHPS", "site_id": 2606, "HEALTH_FACILITY_LOCALITY": "Birim North District", "latitude": 6.456365871, "longitude": -0.928568241, "weight": 0.8638704081504901, "id": 263}, {"HEALTH_FACILITY_NAME": "Nobi CHPS", "site_id": 2600, "HEALTH_FACILITY_LOCALITY": "Abuakwa North District", "latitude": 6.237478, "longitude": -0.325423, "weight": 0.20122071926837898, "id": 264}, {"HEALTH_FACILITY_NAME": "Nkwantanang (Kwaebibirim) CHPS", "site_id": 2581, "HEALTH_FACILITY_LOCALITY": "Kwaebibirem Municipal", "latitude": 6.17253159, "longitude": -0.87256003, "weight": 0.6994049804455167, "id": 265}, {"HEALTH_FACILITY_NAME": "Nkum HC", "site_id": 2568, "HEALTH_FACILITY_LOCALITY": "Agona West Municipal", "latitude": 5.63068212, "longitude": -0.8326136, "weight": 0.8105567431764239, "id": 266}, {"HEALTH_FACILITY_NAME": "Nkankama CHPS", "site_id": 2533, "HEALTH_FACILITY_LOCALITY": "Fanteakwa South", "latitude": 6.429839586, "longitude": -0.287745715, "weight": 0.39748441193525, "id": 267}, {"HEALTH_FACILITY_NAME": "Natriku CHPS", "site_id": 2509, "HEALTH_FACILITY_LOCALITY": "Lower Manya Krobo District", "latitude": 6.100461306, "longitude": 0.110086864, "weight": 0.39829458153110464, "id": 268}, {"HEALTH_FACILITY_NAME": "Nana Khadijah CHPS", "site_id": 2498, "HEALTH_FACILITY_LOCALITY": "Agona East District", "latitude": 5.563896127, "longitude": -0.711919983, "weight": 0.7613483341653474, "id": 269}, {"HEALTH_FACILITY_NAME": "Namanwora CHPS", "site_id": 2484, "HEALTH_FACILITY_LOCALITY": "Agona East District", "latitude": 5.641089957, "longitude": -0.673164007, "weight": 0.6698295974290815, "id": 270}, {"HEALTH_FACILITY_NAME": "Mepom HC", "site_id": 2400, "HEALTH_FACILITY_LOCALITY": "Upper West Akim District", "latitude": 5.795811501, "longitude": -0.600346937, "weight": 0.4952913581347971, "id": 271}, {"HEALTH_FACILITY_NAME": "Mensakrom HC", "site_id": 2398, "HEALTH_FACILITY_LOCALITY": "Agona West Municipal", "latitude": 5.604098, "longitude": -0.723726, "weight": 0.7383648408503177, "id": 272}, {"HEALTH_FACILITY_NAME": "Mayenda CHPS", "site_id": 2389, "HEALTH_FACILITY_LOCALITY": "Awutu Senya West District", "latitude": 5.69874163, "longitude": -0.60660664, "weight": 0.5727231732317576, "id": 273}, {"HEALTH_FACILITY_NAME": "Mankrong HC", "site_id": 2361, "HEALTH_FACILITY_LOCALITY": "Agona East District", "latitude": 5.672015513, "longitude": -0.619320599, "weight": 0.6038940511933975, "id": 274}, {"HEALTH_FACILITY_NAME": "Mangoase CHPS", "site_id": 2347, "HEALTH_FACILITY_LOCALITY": "Awutu Senya West District", "latitude": 5.649704825, "longitude": -0.498871663, "weight": 0.5435459385133861, "id": 275}, {"HEALTH_FACILITY_NAME": "Maase CHPS", "site_id": 2328, "HEALTH_FACILITY_LOCALITY": "Abuakwa North District", "latitude": 6.20591957, "longitude": -0.41099536, "weight": 0.23248186287730271, "id": 276}, {"HEALTH_FACILITY_NAME": "Kpongunor CHPS", "site_id": 2322, "HEALTH_FACILITY_LOCALITY": "Lower Manya Krobo District", "latitude": 6.159765239, "longitude": 0.022754161, "weight": 0.3155105411858735, "id": 277}, {"HEALTH_FACILITY_NAME": "Kyeremase CHPS", "site_id": 2314, "HEALTH_FACILITY_LOCALITY": "Asene Akroso Manso District", "latitude": 5.73703448, "longitude": -0.7131554, "weight": 0.6342235194375246, "id": 278}, {"HEALTH_FACILITY_NAME": "Kyenkyenku CHPS", "site_id": 2310, "HEALTH_FACILITY_LOCALITY": "Birim North District", "latitude": 6.496994676, "longitude": -0.9243411906, "weight": 0.8828206888753907, "id": 279}, {"HEALTH_FACILITY_NAME": "Kwesitwikwa CHPS", "site_id": 2302, "HEALTH_FACILITY_LOCALITY": "Agona East District", "latitude": 5.559665152, "longitude": -0.623210008, "weight": 0.7026907416490299, "id": 280}, {"HEALTH_FACILITY_NAME": "Kwesi Paintsil CHPS", "site_id": 2301, "HEALTH_FACILITY_LOCALITY": "Agona East District", "latitude": 5.688503, "longitude": -0.738532, "weight": 0.6889613754208953, "id": 281}, {"HEALTH_FACILITY_NAME": "Kwanyarko HC", "site_id": 2289, "HEALTH_FACILITY_LOCALITY": "Agona East District", "latitude": 5.590353617, "longitude": -0.637320896, "weight": 0.6852957106159125, "id": 282}, {"HEALTH_FACILITY_NAME": "Kwaman CHPS", "site_id": 2275, "HEALTH_FACILITY_LOCALITY": "Agona West Municipal", "latitude": 5.58858439, "longitude": -0.82619326, "weight": 0.8339962751745837, "id": 283}, {"HEALTH_FACILITY_NAME": "Kwahu Amanfrom CHPS", "site_id": 2268, "HEALTH_FACILITY_LOCALITY": "Kwahu South District", "latitude": 6.614276465, "longitude": -0.354433177, "weight": 0.6104157315765844, "id": 284}, {"HEALTH_FACILITY_NAME": "Kwaboanta CHPS", "site_id": 2264, "HEALTH_FACILITY_LOCALITY": "Ayensuano District", "latitude": 5.917945704, "longitude": -0.562939885, "weight": 0.38770772862424735, "id": 285}, {"HEALTH_FACILITY_NAME": "Kuano CHPS", "site_id": 2222, "HEALTH_FACILITY_LOCALITY": "Ayensuano District", "latitude": 6.005410092, "longitude": -0.53072818, "weight": 0.3209924184640247, "id": 286}, {"HEALTH_FACILITY_NAME": "Krodua CHPS", "site_id": 2217, "HEALTH_FACILITY_LOCALITY": "Upper West Akim District", "latitude": 5.768119839, "longitude": -0.602723883, "weight": 0.5167773711088817, "id": 287}, {"HEALTH_FACILITY_NAME": "Kpong West CHPS", "site_id": 2205, "HEALTH_FACILITY_LOCALITY": "Lower Manya Krobo District", "latitude": 6.153385311, "longitude": 0.05114275392, "weight": 0.3436625028720141, "id": 288}, {"HEALTH_FACILITY_NAME": "Kotokuom CHPS", "site_id": 2191, "HEALTH_FACILITY_LOCALITY": "Akyemansa District", "latitude": 6.201407105, "longitude": -1.119813973, "weight": 0.9747386568127295, "id": 289}, {"HEALTH_FACILITY_NAME": "Kokofu CHPS", "site_id": 2153, "HEALTH_FACILITY_LOCALITY": "Gomoa West District", "latitude": 5.508209, "longitude": -0.824509, "weight": 0.8923356960021459, "id": 290}, {"HEALTH_FACILITY_NAME": "Hope Christian HSP", "site_id": 2152, "HEALTH_FACILITY_LOCALITY": "Gomoa East District", "latitude": 5.431797346, "longitude": -0.476963335, "weight": 0.7523528994677231, "id": 291}, {"HEALTH_FACILITY_NAME": "Kokoado CHPS", "site_id": 2148, "HEALTH_FACILITY_LOCALITY": "Agona East District", "latitude": 5.653683, "longitude": -0.65363, "weight": 0.6447481771730891, "id": 292}, {"HEALTH_FACILITY_NAME": "Agona Kenyankor CHPS", "site_id": 2119, "HEALTH_FACILITY_LOCALITY": "Agona East District", "latitude": 5.6896745, "longitude": -0.67166229, "weight": 0.6314340019058394, "id": 293}, {"HEALTH_FACILITY_NAME": "Kasunya CHPS", "site_id": 2110, "HEALTH_FACILITY_LOCALITY": "Shai Osudoku District", "latitude": 6.05040648, "longitude": 0.26225507, "weight": 0.5660965894516774, "id": 294}, {"HEALTH_FACILITY_NAME": "Kade Guggisburg CHPS", "site_id": 2081, "HEALTH_FACILITY_LOCALITY": "Kwaebibirem Municipal", "latitude": 6.1140512, "longitude": -0.838055536, "weight": 0.6540648236484883, "id": 295}, {"HEALTH_FACILITY_NAME": "Kade Daakye CHPS", "site_id": 2079, "HEALTH_FACILITY_LOCALITY": "Kwaebibirem Municipal", "latitude": 6.105664, "longitude": -0.841797, "weight": 0.6576196694487798, "id": 296}, {"HEALTH_FACILITY_NAME": "Juapong HC", "site_id": 2068, "HEALTH_FACILITY_LOCALITY": "North Tongu District", "latitude": 6.24766886, "longitude": 0.15177553, "weight": 0.4836494935333681, "id": 297}, {"HEALTH_FACILITY_NAME": "Gcd HSP", "site_id": 1949, "HEALTH_FACILITY_LOCALITY": "Denkyembour District", "latitude": 6.032099279, "longitude": -0.807506938, "weight": 0.6202981965061405, "id": 298}, {"HEALTH_FACILITY_NAME": "Fosuansa CHPS", "site_id": 1915, "HEALTH_FACILITY_LOCALITY": "Asikuma/Odoben/Brakwa District", "latitude": 5.67982852, "longitude": -1.00844537, "weight": 0.94686541669729, "id": 299}, {"HEALTH_FACILITY_NAME": "Fomena CHPS", "site_id": 1913, "HEALTH_FACILITY_LOCALITY": "Gomoa West District", "latitude": 5.504941, "longitude": -0.805075, "weight": 0.8796567099142522, "id": 300}, {"HEALTH_FACILITY_NAME": "Fodzoku HC", "site_id": 1909, "HEALTH_FACILITY_LOCALITY": "North Tongu District", "latitude": 6.16196511, "longitude": 0.12462425, "weight": 0.4248338851287707, "id": 301}, {"HEALTH_FACILITY_NAME": "Fianko CHPS", "site_id": 1899, "HEALTH_FACILITY_LOCALITY": "Awutu Senya West District", "latitude": 5.71577686, "longitude": -0.53128804, "weight": 0.5036089645332736, "id": 302}, {"HEALTH_FACILITY_NAME": "Bawjiase HC", "site_id": 1886, "HEALTH_FACILITY_LOCALITY": "Awutu Senya West District", "latitude": 5.68556808, "longitude": -0.5514799, "weight": 0.5436916497124819, "id": 303}, {"HEALTH_FACILITY_NAME": "Ettukrom CHPS", "site_id": 1879, "HEALTH_FACILITY_LOCALITY": "Abuakwa North District", "latitude": 6.263261, "longitude": -0.452334, "weight": 0.3087197479867811, "id": 304}, {"HEALTH_FACILITY_NAME": "Esusu CHPS", "site_id": 1877, "HEALTH_FACILITY_LOCALITY": "Agona East District", "latitude": 5.69079117, "longitude": -0.629731248, "weight": 0.5969235106854164, "id": 305}, {"HEALTH_FACILITY_NAME": "Eshiem CHPS", "site_id": 1867, "HEALTH_FACILITY_LOCALITY": "Asene Akroso Manso District", "latitude": 5.71757264, "longitude": -0.76016069, "weight": 0.6891586451776507, "id": 306}, {"HEALTH_FACILITY_NAME": "Eshiem (Gomoa West) CHPS", "site_id": 1866, "HEALTH_FACILITY_LOCALITY": "Gomoa West District", "latitude": 5.487616, "longitude": -0.844849, "weight": 0.9243725184769278, "id": 307}, {"HEALTH_FACILITY_NAME": "Ekoso HC", "site_id": 1848, "HEALTH_FACILITY_LOCALITY": "West Akim Municipal", "latitude": 5.903688469, "longitude": -0.726543059, "weight": 0.5610998169400455, "id": 308}, {"HEALTH_FACILITY_NAME": "Dzamam CHPS", "site_id": 1827, "HEALTH_FACILITY_LOCALITY": "Upper Manya Krobo District", "latitude": 6.376126208, "longitude": -0.21567239, "weight": 0.33769763763843985, "id": 309}, {"HEALTH_FACILITY_NAME": "Duabone CHPS", "site_id": 1802, "HEALTH_FACILITY_LOCALITY": "Agona East District", "latitude": 5.693609, "longitude": -0.7195775, "weight": 0.6690053056964164, "id": 310}, {"HEALTH_FACILITY_NAME": "Doryumu CHPS", "site_id": 1798, "HEALTH_FACILITY_LOCALITY": "Shai Osudoku District", "latitude": 5.90566001, "longitude": 0.02363941, "weight": 0.35346256760803363, "id": 311}, {"HEALTH_FACILITY_NAME": "Gomoa Dominase CHPS", "site_id": 1783, "HEALTH_FACILITY_LOCALITY": "Gomoa East District", "latitude": 5.478656876, "longitude": -0.58669595, "weight": 0.7559898723139065, "id": 312}, {"HEALTH_FACILITY_NAME": "Dodukrom CHPS", "site_id": 1774, "HEALTH_FACILITY_LOCALITY": "Ayensuano District", "latitude": 5.939524123, "longitude": -0.492963334, "weight": 0.3079093849149832, "id": 313}, {"HEALTH_FACILITY_NAME": "Dedeso Wireku HC", "site_id": 1756, "HEALTH_FACILITY_LOCALITY": "Fanteakwa North District", "latitude": 6.585188281, "longitude": -0.277363598, "weight": 0.5678096170024168, "id": 314}, {"HEALTH_FACILITY_NAME": "Gomoa Dasum CHPS", "site_id": 1740, "HEALTH_FACILITY_LOCALITY": "Gomoa East District", "latitude": 5.57407801, "longitude": -0.58255219, "weight": 0.6637875249418111, "id": 315}, {"HEALTH_FACILITY_NAME": "Akropong (Daakye Aboasah) HC", "site_id": 1705, "HEALTH_FACILITY_LOCALITY": "Akuapim North Municipal", "latitude": 5.981481899, "longitude": -0.077930971, "weight": 0.2141452065383647, "id": 316}, {"HEALTH_FACILITY_NAME": "Bunso CHPS", "site_id": 1663, "HEALTH_FACILITY_LOCALITY": "West Akim Municipal", "latitude": 5.933006623, "longitude": -0.673904705, "weight": 0.4954670196580605, "id": 317}, {"HEALTH_FACILITY_NAME": "Bukunor HC", "site_id": 1660, "HEALTH_FACILITY_LOCALITY": "Yilo Krobo District", "latitude": 6.229240437, "longitude": -0.106134972, "weight": 0.234318980575663, "id": 318}, {"HEALTH_FACILITY_NAME": "Gomoa Buduatta HC", "site_id": 1659, "HEALTH_FACILITY_LOCALITY": "Gomoa East District", "latitude": 5.496915584, "longitude": -0.577258375, "weight": 0.7332696725767547, "id": 319}, {"HEALTH_FACILITY_NAME": "Breman CHPS", "site_id": 1645, "HEALTH_FACILITY_LOCALITY": "Upper West Akim District", "latitude": 5.745452876, "longitude": -0.61071231, "weight": 0.539986571728059, "id": 320}, {"HEALTH_FACILITY_NAME": "Brekumanso CHPS", "site_id": 1644, "HEALTH_FACILITY_LOCALITY": "West Akim Municipal", "latitude": 5.914093913, "longitude": -0.622966502, "weight": 0.449957338785069, "id": 321}, {"HEALTH_FACILITY_NAME": "Bramkrom CHPS", "site_id": 1639, "HEALTH_FACILITY_LOCALITY": "Kwahu West Municipal", "latitude": 6.515551985, "longitude": -0.890294836, "weight": 0.8626258797052238, "id": 322}, {"HEALTH_FACILITY_NAME": "Brabekum CHPS", "site_id": 1636, "HEALTH_FACILITY_LOCALITY": "Agona West Municipal", "latitude": 5.523200036, "longitude": -0.675078969, "weight": 0.7694914229265415, "id": 323}, {"HEALTH_FACILITY_NAME": "Bosso Villa CHPS", "site_id": 1625, "HEALTH_FACILITY_LOCALITY": "Akyemansa District", "latitude": 6.10590968, "longitude": -1.06905085, "weight": 0.9089079926767822, "id": 324}, {"HEALTH_FACILITY_NAME": "Bontodiase CHPS", "site_id": 1618, "HEALTH_FACILITY_LOCALITY": "Akyemansa District", "latitude": 6.16746919, "longitude": -1.11842808, "weight": 0.9684679657402084, "id": 325}, {"HEALTH_FACILITY_NAME": "Bonkrase CHPS", "site_id": 1602, "HEALTH_FACILITY_LOCALITY": "Kwahu Afram Plains South District", "latitude": 6.783705258, "longitude": -0.661482786, "weight": 0.9094463487116538, "id": 326}, {"HEALTH_FACILITY_NAME": "Bomponso No. 2 CHPS", "site_id": 1594, "HEALTH_FACILITY_LOCALITY": "Abuakwa South District", "latitude": 6.15526321, "longitude": -0.39411901, "weight": 0.18519924382442185, "id": 327}, {"HEALTH_FACILITY_NAME": "Bobikuma HC", "site_id": 1566, "HEALTH_FACILITY_LOCALITY": "Agona West Municipal", "latitude": 5.54949218, "longitude": -0.85653748, "weight": 0.8876041430887418, "id": 328}, {"HEALTH_FACILITY_NAME": "Boadua CHPS", "site_id": 1556, "HEALTH_FACILITY_LOCALITY": "Denkyembour District", "latitude": 6.048473119, "longitude": -0.792728361, "weight": 0.6029020542805881, "id": 329}, {"HEALTH_FACILITY_NAME": "Bisa CHPS", "site_id": 1546, "HEALTH_FACILITY_LOCALITY": "Upper Manya Krobo District", "latitude": 6.355534023, "longitude": -0.117033555, "weight": 0.34518133529067063, "id": 330}, {"HEALTH_FACILITY_NAME": "Asikam CHPS", "site_id": 1531, "HEALTH_FACILITY_LOCALITY": "Abuakwa South District", "latitude": 6.19562643, "longitude": -0.53825227, "weight": 0.348261159869332, "id": 331}, {"HEALTH_FACILITY_NAME": "Begoro Salvation Army HC", "site_id": 1501, "HEALTH_FACILITY_LOCALITY": "Fanteakwa North District", "latitude": 6.38083882, "longitude": -0.374460946, "weight": 0.36827101446355237, "id": 332}, {"HEALTH_FACILITY_NAME": "Fante Bawjiase CHPS", "site_id": 1487, "HEALTH_FACILITY_LOCALITY": "Agona East District", "latitude": 5.685937675, "longitude": -0.649201997, "weight": 0.6160706319536563, "id": 333}, {"HEALTH_FACILITY_NAME": "Baware CHPS", "site_id": 1483, "HEALTH_FACILITY_LOCALITY": "Okere District", "latitude": 5.999584028, "longitude": -0.146524358, "weight": 0.13888912989103938, "id": 334}, {"HEALTH_FACILITY_NAME": "Ayikuma CHPS", "site_id": 1439, "HEALTH_FACILITY_LOCALITY": "Shai Osudoku District", "latitude": 5.92256634, "longitude": -0.05298962, "weight": 0.27281784535071996, "id": 335}, {"HEALTH_FACILITY_NAME": "Ayensuaku CHPS", "site_id": 1431, "HEALTH_FACILITY_LOCALITY": "Awutu Senya West District", "latitude": 5.704219232, "longitude": -0.613753327, "weight": 0.5739127072881101, "id": 336}, {"HEALTH_FACILITY_NAME": "Atobriso CHPS", "site_id": 1397, "HEALTH_FACILITY_LOCALITY": "Kwaebibirem Municipal", "latitude": 6.31165096, "longitude": -0.91844825, "weight": 0.7870524641148924, "id": 337}, {"HEALTH_FACILITY_NAME": "Atimatim CHPS", "site_id": 1393, "HEALTH_FACILITY_LOCALITY": "Upper West Akim District", "latitude": 5.86668245, "longitude": -0.57372423, "weight": 0.42588661680016066, "id": 338}, {"HEALTH_FACILITY_NAME": "Atibie Nkwanta CHPS", "site_id": 1390, "HEALTH_FACILITY_LOCALITY": "Kwahu West Municipal", "latitude": 6.46848181, "longitude": -0.75963002, "weight": 0.715158116856255, "id": 339}, {"HEALTH_FACILITY_NAME": "Asutuare Junction CHPS", "site_id": 1382, "HEALTH_FACILITY_LOCALITY": "Shai Osudoku District", "latitude": 5.97894068, "longitude": 0.05497069, "weight": 0.35170116950458036, "id": 340}, {"HEALTH_FACILITY_NAME": "Asuotwene CHPS", "site_id": 1381, "HEALTH_FACILITY_LOCALITY": "Upper West Akim District", "latitude": 5.78998483, "longitude": -0.54177342, "weight": 0.45054584418529453, "id": 341}, {"HEALTH_FACILITY_NAME": "Asuoso CHPS", "site_id": 1380, "HEALTH_FACILITY_LOCALITY": "Asene Akroso Manso District", "latitude": 5.79565848, "longitude": -0.79072682, "weight": 0.6738258076391501, "id": 342}, {"HEALTH_FACILITY_NAME": "Asuom Amanfrom CHPS", "site_id": 1377, "HEALTH_FACILITY_LOCALITY": "Kwaebibirem Municipal", "latitude": 6.331522, "longitude": -0.865199, "weight": 0.740024472706327, "id": 343}, {"HEALTH_FACILITY_NAME": "Asuokaw CHPS", "site_id": 1375, "HEALTH_FACILITY_LOCALITY": "Upper West Akim District", "latitude": 5.82142777, "longitude": -0.631159237, "weight": 0.5064646113334024, "id": 344}, {"HEALTH_FACILITY_NAME": "Asikasu CHPS", "site_id": 1330, "HEALTH_FACILITY_LOCALITY": "Upper West Akim District", "latitude": 5.777255474, "longitude": -0.563444903, "weight": 0.4776431294582904, "id": 345}, {"HEALTH_FACILITY_NAME": "Akutuase CHPS", "site_id": 1327, "HEALTH_FACILITY_LOCALITY": "Atiwa East District", "latitude": 6.44617096, "longitude": -0.7522028, "weight": 0.6937143219950209, "id": 346}, {"HEALTH_FACILITY_NAME": "Aseseeso HC", "site_id": 1320, "HEALTH_FACILITY_LOCALITY": "Okere District", "latitude": 6.010535295, "longitude": -0.051789578, "weight": 0.22845851589815222, "id": 347}, {"HEALTH_FACILITY_NAME": "Akorley CHPS", "site_id": 1298, "HEALTH_FACILITY_LOCALITY": "Yilo Krobo District", "latitude": 6.02878049, "longitude": -0.00455303, "weight": 0.2745126355677528, "id": 348}, {"HEALTH_FACILITY_NAME": "Apraku CHPS", "site_id": 1265, "HEALTH_FACILITY_LOCALITY": "Denkyembour District", "latitude": 6.090186, "longitude": -0.967448, "weight": 0.7959396418323919, "id": 349}, {"HEALTH_FACILITY_NAME": "Apirede CHPS", "site_id": 1253, "HEALTH_FACILITY_LOCALITY": "Okere District", "latitude": 6.038351453, "longitude": -0.07974051, "weight": 0.19076118765164474, "id": 350}, {"HEALTH_FACILITY_NAME": "Aperade HC", "site_id": 1246, "HEALTH_FACILITY_LOCALITY": "Achiase District", "latitude": 5.79262411, "longitude": -1.09420451, "weight": 0.9861161426546738, "id": 351}, {"HEALTH_FACILITY_NAME": "Apedwa HC", "site_id": 1237, "HEALTH_FACILITY_LOCALITY": "Abuakwa South District", "latitude": 6.13589326, "longitude": -0.493844015, "weight": 0.2803173766477484, "id": 352}, {"HEALTH_FACILITY_NAME": "Anweabeng CHPS", "site_id": 1210, "HEALTH_FACILITY_LOCALITY": "Yilo Krobo District", "latitude": 6.282201407, "longitude": -0.307475477, "weight": 0.240822631589434, "id": 353}, {"HEALTH_FACILITY_NAME": "Anum HC", "site_id": 1207, "HEALTH_FACILITY_LOCALITY": "West Akim Municipal", "latitude": 5.865069998, "longitude": -0.65652047, "weight": 0.5065473148229617, "id": 354}, {"HEALTH_FACILITY_NAME": "Anomawobi CHPS", "site_id": 1197, "HEALTH_FACILITY_LOCALITY": "Bosome Freho District", "latitude": 6.186444, "longitude": -1.253401, "weight": 1.1192528152834733, "id": 355}, {"HEALTH_FACILITY_NAME": "Adubiase CHPS", "site_id": 1195, "HEALTH_FACILITY_LOCALITY": "Akyemansa District", "latitude": 6.052514305, "longitude": -1.166948163, "weight": 1.0168182290336683, "id": 356}, {"HEALTH_FACILITY_NAME": "Adeiso HC", "site_id": 1172, "HEALTH_FACILITY_LOCALITY": "Upper West Akim District", "latitude": 5.799731, "longitude": -0.4905447, "weight": 0.40344205348801415, "id": 357}, {"HEALTH_FACILITY_NAME": "Amuana Praso HC", "site_id": 1160, "HEALTH_FACILITY_LOCALITY": "Birim North District", "latitude": 6.513810955, "longitude": -0.978958297, "weight": 0.9440252824612027, "id": 358}, {"HEALTH_FACILITY_NAME": "Ammarko CHPS", "site_id": 1133, "HEALTH_FACILITY_LOCALITY": "West Akim Municipal", "latitude": 5.89707431, "longitude": -0.592019803, "weight": 0.42683822305968966, "id": 359}, {"HEALTH_FACILITY_NAME": "Kwahu Amanfrom Urban CHPS", "site_id": 1116, "HEALTH_FACILITY_LOCALITY": "Kwahu South District", "latitude": 6.654878752, "longitude": -0.66071742, "weight": 0.7890368572152845, "id": 360}, {"HEALTH_FACILITY_NAME": "Akyem Amanfrom CHPS", "site_id": 1112, "HEALTH_FACILITY_LOCALITY": "Abuakwa South District", "latitude": 6.10673271, "longitude": -0.51990361, "weight": 0.30264751176826876, "id": 361}, {"HEALTH_FACILITY_NAME": "Akyeremateng CHPS", "site_id": 1102, "HEALTH_FACILITY_LOCALITY": "Yilo Krobo District", "latitude": 6.17568455, "longitude": -0.19953208, "weight": 0.12634768717847375, "id": 362}, {"HEALTH_FACILITY_NAME": "Akyem Takyiman CHPS", "site_id": 1099, "HEALTH_FACILITY_LOCALITY": "Akyemansa District", "latitude": 6.193278, "longitude": -1.022764112, "weight": 0.8671914106724512, "id": 363}, {"HEALTH_FACILITY_NAME": "Akyekrom CHPS", "site_id": 1093, "HEALTH_FACILITY_LOCALITY": "Akyemansa District", "latitude": 5.98833977, "longitude": -1.122537665, "weight": 0.9719421567581341, "id": 364}, {"HEALTH_FACILITY_NAME": "Akpo CHPS", "site_id": 1069, "HEALTH_FACILITY_LOCALITY": "Yilo Krobo District", "latitude": 6.18438519, "longitude": -0.25053915, "weight": 0.12369716964552924, "id": 365}, {"HEALTH_FACILITY_NAME": "Akpamu CHPS", "site_id": 1068, "HEALTH_FACILITY_LOCALITY": "Yilo Krobo District", "latitude": 6.17060764, "longitude": -0.23817552, "weight": 0.1090599153856809, "id": 366}, {"HEALTH_FACILITY_NAME": "Akotoe CHPS", "site_id": 1067, "HEALTH_FACILITY_LOCALITY": "Upper Manya Krobo District", "latitude": 6.48693, "longitude": -0.120639, "weight": 0.47964711194866483, "id": 367}, {"HEALTH_FACILITY_NAME": "Akoase CHPS", "site_id": 1048, "HEALTH_FACILITY_LOCALITY": "Birim North District", "latitude": 6.467159, "longitude": -0.88417, "weight": 0.8276585691193387, "id": 368}, {"HEALTH_FACILITY_NAME": "Akim Kwamang CHPS", "site_id": 1046, "HEALTH_FACILITY_LOCALITY": "Kwaebibirem Municipal", "latitude": 6.201709, "longitude": -0.715694, "weight": 0.5363325236858283, "id": 369}, {"HEALTH_FACILITY_NAME": "Ahinkwa CHPS", "site_id": 1026, "HEALTH_FACILITY_LOCALITY": "Yilo Krobo District", "latitude": 6.28934098, "longitude": -0.33128768, "weight": 0.2566044119280896, "id": 370}, {"HEALTH_FACILITY_NAME": "Adjepomaah CHPS", "site_id": 1008, "HEALTH_FACILITY_LOCALITY": "Abuakwa South District", "latitude": 6.211963828, "longitude": -0.487888155, "weight": 0.3064242433352718, "id": 371}, {"HEALTH_FACILITY_NAME": "Agomeda HC", "site_id": 992, "HEALTH_FACILITY_LOCALITY": "Shai Osudoku District", "latitude": 5.980378957, "longitude": 0.009926445, "weight": 0.3038587687722714, "id": 372}, {"HEALTH_FACILITY_NAME": "Afabeng CHPS", "site_id": 965, "HEALTH_FACILITY_LOCALITY": "Upper West Akim District", "latitude": 5.83205687, "longitude": -0.4951688, "weight": 0.3811013581983715, "id": 373}, {"HEALTH_FACILITY_NAME": "Akyem Adukrom CHPS", "site_id": 958, "HEALTH_FACILITY_LOCALITY": "Abuakwa South District", "latitude": 6.21697003, "longitude": -0.524363698, "weight": 0.34444890299587344, "id": 374}, {"HEALTH_FACILITY_NAME": "Adawukwao CHPS(CR)", "site_id": 931, "HEALTH_FACILITY_LOCALITY": "Awutu Senya West District", "latitude": 5.672288802, "longitude": -0.515610878, "weight": 0.5322813593506008, "id": 375}, {"HEALTH_FACILITY_NAME": "Adankrono CHPS", "site_id": 928, "HEALTH_FACILITY_LOCALITY": "Kwaebibirem Municipal", "latitude": 6.080650553, "longitude": -0.8283339, "weight": 0.6417734166003428, "id": 376}, {"HEALTH_FACILITY_NAME": "Akim Achiase Junction CHPS", "site_id": 918, "HEALTH_FACILITY_LOCALITY": "Achiase District", "latitude": 5.818031292, "longitude": -1.028365124, "weight": 0.9080685031826199, "id": 377}, {"HEALTH_FACILITY_NAME": "Abrenya CHPS", "site_id": 904, "HEALTH_FACILITY_LOCALITY": "Atiwa West District", "latitude": 6.3773973, "longitude": -0.660407324, "weight": 0.566842035608158, "id": 378}, {"HEALTH_FACILITY_NAME": "Abonse CHPS", "site_id": 890, "HEALTH_FACILITY_LOCALITY": "Okere District", "latitude": 5.999723977, "longitude": -0.020400264, "weight": 0.2651986517458172, "id": 379}, {"HEALTH_FACILITY_NAME": "Abodom HC(CR)", "site_id": 881, "HEALTH_FACILITY_LOCALITY": "Agona West Municipal", "latitude": 5.53291284, "longitude": -0.82292751, "weight": 0.8721599410493346, "id": 380}, {"HEALTH_FACILITY_NAME": "Abiriw HC", "site_id": 866, "HEALTH_FACILITY_LOCALITY": "Akuapim North Municipal", "latitude": 5.979862955, "longitude": -0.089235806, "weight": 0.204078810438638, "id": 381}, {"HEALTH_FACILITY_NAME": "Abigyakrom CHPS(CR)", "site_id": 863, "HEALTH_FACILITY_LOCALITY": "Agona West Municipal", "latitude": 5.54651948, "longitude": -0.77743791, "weight": 0.8254529895543823, "id": 382}, {"HEALTH_FACILITY_NAME": "Abenaso CHPS", "site_id": 857, "HEALTH_FACILITY_LOCALITY": "Kwaebibirem Municipal", "latitude": 6.215763928, "longitude": -0.740491404, "weight": 0.5669728868836915, "id": 383}, {"HEALTH_FACILITY_NAME": "Abehenease CHPS", "site_id": 854, "HEALTH_FACILITY_LOCALITY": "Kwaebibirem Municipal", "latitude": 6.351393499, "longitude": -0.894276411, "weight": 0.7782289022479884, "id": 384}, {"HEALTH_FACILITY_NAME": "Abamkrom HC", "site_id": 848, "HEALTH_FACILITY_LOCALITY": "Upper West Akim District", "latitude": 5.740414617, "longitude": -0.650094841, "weight": 0.5766446035155554, "id": 385}, {"HEALTH_FACILITY_NAME": "Labolabo HC", "site_id": 817, "HEALTH_FACILITY_LOCALITY": "Yilo Krobo District", "latitude": 6.12344, "longitude": -0.16418, "weight": 0.10912528961054287, "id": 386}, {"HEALTH_FACILITY_NAME": "Dwenase (Fanteakwa South) CHPS", "site_id": 815, "HEALTH_FACILITY_LOCALITY": "Fanteakwa South", "latitude": 6.373951122, "longitude": -0.474517947, "weight": 0.41663708946138783, "id": 387}, {"HEALTH_FACILITY_NAME": "Hemang CHPS", "site_id": 814, "HEALTH_FACILITY_LOCALITY": "Fanteakwa South", "latitude": 6.344437, "longitude": -0.446776, "weight": 0.3721420788488639, "id": 388}, {"HEALTH_FACILITY_NAME": "Old Tafo CHPS", "site_id": 813, "HEALTH_FACILITY_LOCALITY": "Abuakwa North District", "latitude": 6.23421, "longitude": -0.3984, "weight": 0.24379866117939974, "id": 389}, {"HEALTH_FACILITY_NAME": "Anyinasin CHPS", "site_id": 812, "HEALTH_FACILITY_LOCALITY": "Abuakwa North District", "latitude": 6.22935, "longitude": -0.44481, "weight": 0.27787273269204915, "id": 390}, {"HEALTH_FACILITY_NAME": "Apapam CHPS", "site_id": 811, "HEALTH_FACILITY_LOCALITY": "Abuakwa South District", "latitude": 6.15179, "longitude": -0.59365, "weight": 0.3918204938366504, "id": 391}, {"HEALTH_FACILITY_NAME": "Bomponso CHPS", "site_id": 810, "HEALTH_FACILITY_LOCALITY": "Abuakwa South District", "latitude": 6.16591, "longitude": -0.39298, "weight": 0.19022735826535184, "id": 392}, {"HEALTH_FACILITY_NAME": "Ntunkum CHPS", "site_id": 809, "HEALTH_FACILITY_LOCALITY": "Suhum Municipal", "latitude": 6.10535, "longitude": -0.4185, "weight": 0.19149544806535906, "id": 393}, {"HEALTH_FACILITY_NAME": "Potroase CHPS", "site_id": 808, "HEALTH_FACILITY_LOCALITY": "Abuakwa South District", "latitude": 6.11017366, "longitude": -0.56615914, "weight": 0.35393316790018003, "id": 394}, {"HEALTH_FACILITY_NAME": "Obretema CHPS", "site_id": 807, "HEALTH_FACILITY_LOCALITY": "Suhum Municipal", "latitude": 6.08412, "longitude": -0.47573, "weight": 0.2517096186674809, "id": 395}, {"HEALTH_FACILITY_NAME": "Obomofodensua CHPS", "site_id": 806, "HEALTH_FACILITY_LOCALITY": "Suhum Municipal", "latitude": 6.062070102, "longitude": -0.368257447, "weight": 0.13292275703762158, "id": 396}, {"HEALTH_FACILITY_NAME": "Pabi CHPS", "site_id": 805, "HEALTH_FACILITY_LOCALITY": "West Akim Municipal", "latitude": 5.96093328, "longitude": -0.6063025, "weight": 0.4147609155914384, "id": 397}, {"HEALTH_FACILITY_NAME": "Kofi Pare RCH", "site_id": 804, "HEALTH_FACILITY_LOCALITY": "Ayensuano District", "latitude": 5.9538, "longitude": -0.57389, "weight": 0.3832852376033238, "id": 398}, {"HEALTH_FACILITY_NAME": "Mfranta CHPS", "site_id": 803, "HEALTH_FACILITY_LOCALITY": "Ayensuano District", "latitude": 5.99697833, "longitude": -0.525491625, "weight": 0.3176820818207799, "id": 399}, {"HEALTH_FACILITY_NAME": "Coaltar RCH", "site_id": 802, "HEALTH_FACILITY_LOCALITY": "Ayensuano District", "latitude": 5.908756097, "longitude": -0.471579722, "weight": 0.3061578336437817, "id": 400}, {"HEALTH_FACILITY_NAME": "Marfokrom CHPS", "site_id": 801, "HEALTH_FACILITY_LOCALITY": "Ayensuano District", "latitude": 5.86389, "longitude": -0.43494, "weight": 0.30950181504862695, "id": 401}, {"HEALTH_FACILITY_NAME": "Kudi Kope HC", "site_id": 72, "HEALTH_FACILITY_LOCALITY": "Asuogyaman District", "latitude": 6.4721, "longitude": 0.07355, "weight": 0.5677573696097354, "id": 402}, {"HEALTH_FACILITY_NAME": "Asitey HC", "site_id": 797, "HEALTH_FACILITY_LOCALITY": "Lower Manya Krobo District", "latitude": 6.12966, "longitude": -0.0125, "weight": 0.26891299265544316, "id": 403}, {"HEALTH_FACILITY_NAME": "Asesewa Government HSP", "site_id": 796, "HEALTH_FACILITY_LOCALITY": "Upper Manya Krobo District", "latitude": 6.401750425, "longitude": -0.146908736, "weight": 0.3810679823821861, "id": 404}, {"HEALTH_FACILITY_NAME": "Ekye Central CHPS", "site_id": 794, "HEALTH_FACILITY_LOCALITY": "Kwahu Afram Plains South District", "latitude": 6.74696, "longitude": -0.50282, "weight": 0.7970694065792013, "id": 405}, {"HEALTH_FACILITY_NAME": "Nkyenekyene HC", "site_id": 793, "HEALTH_FACILITY_LOCALITY": "Kwahu South District", "latitude": 6.703311773, "longitude": -0.55173483, "weight": 0.7739625885960442, "id": 406}, {"HEALTH_FACILITY_NAME": "Brenase HC", "site_id": 792, "HEALTH_FACILITY_LOCALITY": "Akyemansa District", "latitude": 6.18459, "longitude": -1.14118, "weight": 0.995670102666968, "id": 407}, {"HEALTH_FACILITY_NAME": "Odumase CHPS", "site_id": 791, "HEALTH_FACILITY_LOCALITY": "Akyemansa District", "latitude": 6.07462, "longitude": -1.15508, "weight": 1.003420898889088, "id": 408}, {"HEALTH_FACILITY_NAME": "Anweaso No. 4 CHPS", "site_id": 789, "HEALTH_FACILITY_LOCALITY": "Denkyembour District", "latitude": 5.98237, "longitude": -0.84223, "weight": 0.664676229103299, "id": 409}, {"HEALTH_FACILITY_NAME": "Kade Government HSP", "site_id": 788, "HEALTH_FACILITY_LOCALITY": "Kwaebibirem Municipal", "latitude": 6.09961, "longitude": -0.84048, "weight": 0.6558281307251587, "id": 410}, {"HEALTH_FACILITY_NAME": "Subi HC", "site_id": 787, "HEALTH_FACILITY_LOCALITY": "Kwaebibirem Municipal", "latitude": 6.12890526, "longitude": -0.83493223, "weight": 0.6519719474106079, "id": 411}, {"HEALTH_FACILITY_NAME": "Pramkesse HC", "site_id": 786, "HEALTH_FACILITY_LOCALITY": "Kwaebibirem Municipal", "latitude": 6.132427, "longitude": -0.765044, "weight": 0.5754455815269557, "id": 412}, {"HEALTH_FACILITY_NAME": "Nankesse HC", "site_id": 782, "HEALTH_FACILITY_LOCALITY": "Suhum Municipal", "latitude": 6.09483, "longitude": -0.37265, "weight": 0.13946968104932317, "id": 413}, {"HEALTH_FACILITY_NAME": "Suhum District HSP", "site_id": 781, "HEALTH_FACILITY_LOCALITY": "Suhum Municipal", "latitude": 6.03682612, "longitude": -0.44488171, "weight": 0.22080716661123728, "id": 414}, {"HEALTH_FACILITY_NAME": "Odumase HC-GH1", "site_id": 776, "HEALTH_FACILITY_LOCALITY": "Lower Manya Krobo District", "latitude": 6.13817, "longitude": 0.00607, "weight": 0.2911339529042481, "id": 415}, {"HEALTH_FACILITY_NAME": "St Michaels HC", "site_id": 771, "HEALTH_FACILITY_LOCALITY": "Birim North District", "latitude": 6.34177, "longitude": -1.07835, "weight": 0.9653100747391775, "id": 416}, {"HEALTH_FACILITY_NAME": "Adausena HC", "site_id": 770, "HEALTH_FACILITY_LOCALITY": "Birim North District", "latitude": 6.3431, "longitude": -1.05788, "weight": 0.9442499568317291, "id": 417}, {"HEALTH_FACILITY_NAME": "Kwahu Daa HC", "site_id": 769, "HEALTH_FACILITY_LOCALITY": "Kwahu West Municipal", "latitude": 6.58056, "longitude": -0.90667, "weight": 0.9196325092936044, "id": 418}, {"HEALTH_FACILITY_NAME": "Kofi Dede CHPS", "site_id": 768, "HEALTH_FACILITY_LOCALITY": "Kwahu West Municipal", "latitude": 6.61701, "longitude": -0.86733, "weight": 0.9116568856507493, "id": 419}, {"HEALTH_FACILITY_NAME": "Awenade CHPS", "site_id": 767, "HEALTH_FACILITY_LOCALITY": "Kwahu West Municipal", "latitude": 6.58636, "longitude": -0.81574, "weight": 0.8465135442226297, "id": 420}, {"HEALTH_FACILITY_NAME": "Nkawkaw Amanfrom CHPS", "site_id": 766, "HEALTH_FACILITY_LOCALITY": "Kwahu West Municipal", "latitude": 6.56979, "longitude": -0.79912, "weight": 0.8205907730741544, "id": 421}, {"HEALTH_FACILITY_NAME": "Asona CHPS", "site_id": 765, "HEALTH_FACILITY_LOCALITY": "Kwahu West Municipal", "latitude": 6.59637, "longitude": -0.83792, "weight": 0.8721693670816478, "id": 422}, {"HEALTH_FACILITY_NAME": "Wekpeti CHPS", "site_id": 764, "HEALTH_FACILITY_LOCALITY": "Atiwa West District", "latitude": 6.30958, "longitude": -0.67062, "weight": 0.5355590564117843, "id": 423}, {"HEALTH_FACILITY_NAME": "Akwaduuso CHPS", "site_id": 763, "HEALTH_FACILITY_LOCALITY": "Atiwa West District", "latitude": 6.28962, "longitude": -0.69277, "weight": 0.5470341428775729, "id": 424}, {"HEALTH_FACILITY_NAME": "Mourso CHPS", "site_id": 762, "HEALTH_FACILITY_LOCALITY": "Atiwa West District", "latitude": 6.36369, "longitude": -0.60327, "weight": 0.5076340027764593, "id": 425}, {"HEALTH_FACILITY_NAME": "Ankwensu CHPS", "site_id": 761, "HEALTH_FACILITY_LOCALITY": "Akuapim South District", "latitude": 5.91882274, "longitude": -0.25291305, "weight": 0.1700630604448272, "id": 426}, {"HEALTH_FACILITY_NAME": "Gboloo-Kofi CHPS", "site_id": 760, "HEALTH_FACILITY_LOCALITY": "Akuapim North Municipal", "latitude": 5.93466, "longitude": -0.27396, "weight": 0.1550388212975748, "id": 427}, {"HEALTH_FACILITY_NAME": "Nkyenkyene Amanfrom CHPS", "site_id": 759, "HEALTH_FACILITY_LOCALITY": "Nsawam Adoagyire Municipal", "latitude": 5.83612, "longitude": -0.32265, "weight": 0.27399601991465306, "id": 428}, {"HEALTH_FACILITY_NAME": "Amenam CHPS", "site_id": 758, "HEALTH_FACILITY_LOCALITY": "Birim North District", "latitude": 6.42355, "longitude": -1.00416, "weight": 0.9217907711273423, "id": 429}, {"HEALTH_FACILITY_NAME": "Kwadwohum/Abeho CHPS", "site_id": 757, "HEALTH_FACILITY_LOCALITY": "Ayensuano District", "latitude": 5.99167, "longitude": -0.5415, "weight": 0.336327473002352, "id": 430}, {"HEALTH_FACILITY_NAME": "Nanabanin CHPS", "site_id": 755, "HEALTH_FACILITY_LOCALITY": "Okere District", "latitude": 6.06639, "longitude": -0.19896, "weight": 0.0554150161446523, "id": 431}, {"HEALTH_FACILITY_NAME": "Mankrong CHPS", "site_id": 754, "HEALTH_FACILITY_LOCALITY": "Ayensuano District", "latitude": 5.97304, "longitude": -0.41421, "weight": 0.213794988113825, "id": 432}, {"HEALTH_FACILITY_NAME": "Asuaba CHPS", "site_id": 753, "HEALTH_FACILITY_LOCALITY": "Upper West Akim District", "latitude": 5.80497137, "longitude": -0.45604506, "weight": 0.3745624840692681, "id": 433}, {"HEALTH_FACILITY_NAME": "Adasawase CHPS", "site_id": 752, "HEALTH_FACILITY_LOCALITY": "Atiwa East District", "latitude": 6.40523, "longitude": -0.52571, "weight": 0.4789256711212127, "id": 434}, {"HEALTH_FACILITY_NAME": "Twum Guaso CHPS", "site_id": 751, "HEALTH_FACILITY_LOCALITY": "Okere District", "latitude": 6.044378687, "longitude": -0.16589254, "weight": 0.096754001731234, "id": 435}, {"HEALTH_FACILITY_NAME": "Awosoase CHPS", "site_id": 749, "HEALTH_FACILITY_LOCALITY": "Atiwa East District", "latitude": 6.42569, "longitude": -0.68613, "weight": 0.6220160559330228, "id": 436}, {"HEALTH_FACILITY_NAME": "Akyem Asunafo CHPS", "site_id": 748, "HEALTH_FACILITY_LOCALITY": "Atiwa West District", "latitude": 6.33748, "longitude": -0.70479, "weight": 0.5836873859655461, "id": 437}, {"HEALTH_FACILITY_NAME": "Ekorso CHPS", "site_id": 747, "HEALTH_FACILITY_LOCALITY": "Atiwa West District", "latitude": 6.315, "longitude": -0.68978, "weight": 0.557006007708981, "id": 438}, {"HEALTH_FACILITY_NAME": "Mosease CHPS", "site_id": 746, "HEALTH_FACILITY_LOCALITY": "Atiwa East District", "latitude": 6.36393, "longitude": -0.54321, "weight": 0.4583761331351621, "id": 439}, {"HEALTH_FACILITY_NAME": "Akyem Tumfa CHPS", "site_id": 745, "HEALTH_FACILITY_LOCALITY": "Atiwa West District", "latitude": 6.24638, "longitude": -0.67843, "weight": 0.5130716502686933, "id": 440}, {"HEALTH_FACILITY_NAME": "Akyem Pameng CHPS", "site_id": 744, "HEALTH_FACILITY_LOCALITY": "Atiwa West District", "latitude": 6.21542, "longitude": -0.62212, "weight": 0.44254977953054014, "id": 441}, {"HEALTH_FACILITY_NAME": "Akyem Banso CHPS", "site_id": 743, "HEALTH_FACILITY_LOCALITY": "Atiwa West District", "latitude": 6.241897, "longitude": -0.628761, "weight": 0.4605242728925258, "id": 442}, {"HEALTH_FACILITY_NAME": "Akyem Bomaa CHPS", "site_id": 742, "HEALTH_FACILITY_LOCALITY": "Atiwa West District", "latitude": 6.29556, "longitude": -0.5912, "weight": 0.45228826317873577, "id": 443}, {"HEALTH_FACILITY_NAME": "Asamang Tamfoe CHPS", "site_id": 741, "HEALTH_FACILITY_LOCALITY": "Atiwa East District", "latitude": 6.36972, "longitude": -0.53075, "weight": 0.45329320439048554, "id": 444}, {"HEALTH_FACILITY_NAME": "Densuano HC", "site_id": 738, "HEALTH_FACILITY_LOCALITY": "New Juaben South Municipal", "latitude": 6.07297, "longitude": -0.28754, "weight": 0.0430647806363412, "id": 445}, {"HEALTH_FACILITY_NAME": "Koransang CHPS", "site_id": 734, "HEALTH_FACILITY_LOCALITY": "Suhum Municipal", "latitude": 6.00227, "longitude": -0.30792, "weight": 0.10171862133765673, "id": 446}, {"HEALTH_FACILITY_NAME": "Tinkong CHPS", "site_id": 733, "HEALTH_FACILITY_LOCALITY": "Akuapim North Municipal", "latitude": 5.990724254, "longitude": -0.23837582, "weight": 0.09119473864491193, "id": 447}, {"HEALTH_FACILITY_NAME": "Nyamekrom CHPS", "site_id": 732, "HEALTH_FACILITY_LOCALITY": "New Juaben South Municipal", "latitude": 6.08203, "longitude": -0.29584, "weight": 0.05329199364313874, "id": 448}, {"HEALTH_FACILITY_NAME": "Akote CHPS", "site_id": 731, "HEALTH_FACILITY_LOCALITY": "Suhum Municipal", "latitude": 6.06254, "longitude": -0.40208, "weight": 0.17021849677379297, "id": 449}, {"HEALTH_FACILITY_NAME": "Aponoapono CHPS", "site_id": 729, "HEALTH_FACILITY_LOCALITY": "Suhum Municipal", "latitude": 6.05811, "longitude": -0.5011, "weight": 0.27993033948895424, "id": 450}, {"HEALTH_FACILITY_NAME": "Okorase Suhum  CHPS", "site_id": 726, "HEALTH_FACILITY_LOCALITY": "Suhum Municipal", "latitude": 6.02273, "longitude": -0.44589, "weight": 0.22520612353484903, "id": 451}, {"HEALTH_FACILITY_NAME": "Behenase CHPS", "site_id": 725, "HEALTH_FACILITY_LOCALITY": "Akuapim North Municipal", "latitude": 5.973809987, "longitude": -0.26190004, "weight": 0.11017139816642384, "id": 452}, {"HEALTH_FACILITY_NAME": "Obenyemi CHPS", "site_id": 717, "HEALTH_FACILITY_LOCALITY": "Yilo Krobo District", "latitude": 6.15677, "longitude": -0.07415, "weight": 0.21442823189334498, "id": 453}, {"HEALTH_FACILITY_NAME": "Otrokper HC", "site_id": 716, "HEALTH_FACILITY_LOCALITY": "Yilo Krobo District", "latitude": 6.25193, "longitude": -0.11446, "weight": 0.2478067774458323, "id": 454}, {"HEALTH_FACILITY_NAME": "Alidor  (MAT) CHPS", "site_id": 715, "HEALTH_FACILITY_LOCALITY": "Upper Manya Krobo District", "latitude": 6.39736, "longitude": -0.14574, "weight": 0.37682113236971404, "id": 455}, {"HEALTH_FACILITY_NAME": "Abourso CHPS", "site_id": 714, "HEALTH_FACILITY_LOCALITY": "Fanteakwa North District", "latitude": 6.52204, "longitude": -0.27009, "weight": 0.49765092563058444, "id": 456}, {"HEALTH_FACILITY_NAME": "Apeguso HC", "site_id": 712, "HEALTH_FACILITY_LOCALITY": "Asuogyaman District", "latitude": 6.30628442, "longitude": 0.14984386, "weight": 0.5111885535878286, "id": 457}, {"HEALTH_FACILITY_NAME": "Aboasa CHPS", "site_id": 711, "HEALTH_FACILITY_LOCALITY": "Asuogyaman District", "latitude": 6.29604, "longitude": 0.13418, "weight": 0.4905081954819595, "id": 458}, {"HEALTH_FACILITY_NAME": "South Senchi HC", "site_id": 710, "HEALTH_FACILITY_LOCALITY": "Asuogyaman District", "latitude": 6.19844, "longitude": 0.08459, "weight": 0.39423959012901627, "id": 459}, {"HEALTH_FACILITY_NAME": "Anyaboni HC", "site_id": 709, "HEALTH_FACILITY_LOCALITY": "Upper Manya Krobo District", "latitude": 6.33968, "longitude": -0.06984, "weight": 0.3555658310403068, "id": 460}, {"HEALTH_FACILITY_NAME": "Akokoma Sisi CHPS", "site_id": 708, "HEALTH_FACILITY_LOCALITY": "Upper Manya Krobo District", "latitude": 6.378311475, "longitude": -0.035742375, "weight": 0.4121262300129468, "id": 461}, {"HEALTH_FACILITY_NAME": "Fatem CHPS", "site_id": 707, "HEALTH_FACILITY_LOCALITY": "Upper Manya Krobo District", "latitude": 6.26523, "longitude": -0.05749, "weight": 0.3002721391216325, "id": 462}, {"HEALTH_FACILITY_NAME": "Addokrom CHPS", "site_id": 706, "HEALTH_FACILITY_LOCALITY": "Fanteakwa North District", "latitude": 6.56036, "longitude": -0.40962, "weight": 0.5681079238090945, "id": 463}, {"HEALTH_FACILITY_NAME": "Asarekwao CHPS", "site_id": 705, "HEALTH_FACILITY_LOCALITY": "Fanteakwa North District", "latitude": 6.525484, "longitude": -0.43834, "weight": 0.5430973762027108, "id": 464}, {"HEALTH_FACILITY_NAME": "Akwanserem CHPS", "site_id": 704, "HEALTH_FACILITY_LOCALITY": "Fanteakwa North District", "latitude": 6.45033, "longitude": -0.44723, "weight": 0.47205467511356025, "id": 465}, {"HEALTH_FACILITY_NAME": "Akatawia CHPS", "site_id": 703, "HEALTH_FACILITY_LOCALITY": "Upper Manya Krobo District", "latitude": 6.28053, "longitude": -0.12768, "weight": 0.2661279568267422, "id": 466}, {"HEALTH_FACILITY_NAME": "Djikiti CHPS", "site_id": 702, "HEALTH_FACILITY_LOCALITY": "Lower Manya Krobo District", "latitude": 6.21592, "longitude": -0.03302, "weight": 0.2865242701825626, "id": 467}, {"HEALTH_FACILITY_NAME": "Obohoo CHPS", "site_id": 701, "HEALTH_FACILITY_LOCALITY": "Fanteakwa North District", "latitude": 6.42737, "longitude": -0.33816, "weight": 0.4047026331091716, "id": 468}, {"HEALTH_FACILITY_NAME": "Apimsu CHPS", "site_id": 700, "HEALTH_FACILITY_LOCALITY": "Upper Manya Krobo District", "latitude": 6.30754, "longitude": -0.08526, "weight": 0.3165909895719363, "id": 469}, {"HEALTH_FACILITY_NAME": "New Akrade CHPS", "site_id": 698, "HEALTH_FACILITY_LOCALITY": "Asuogyaman District", "latitude": 6.20328, "longitude": 0.07857, "weight": 0.3899637144966045, "id": 470}, {"HEALTH_FACILITY_NAME": "Atimpoku HC", "site_id": 696, "HEALTH_FACILITY_LOCALITY": "Asuogyaman District", "latitude": 6.235583, "longitude": 0.09186, "weight": 0.41778000282010036, "id": 471}, {"HEALTH_FACILITY_NAME": "Adjikpo CHPS", "site_id": 695, "HEALTH_FACILITY_LOCALITY": "Yilo Krobo District", "latitude": 6.1176, "longitude": -0.0209, "weight": 0.2569714010433769, "id": 472}, {"HEALTH_FACILITY_NAME": "Oboadaka CHPS", "site_id": 694, "HEALTH_FACILITY_LOCALITY": "Akuapim South District", "latitude": 5.87025, "longitude": -0.21545, "weight": 0.2267099008479283, "id": 473}, {"HEALTH_FACILITY_NAME": "Pokrom HC", "site_id": 693, "HEALTH_FACILITY_LOCALITY": "Akuapim South District", "latitude": 5.82608, "longitude": -0.23775, "weight": 0.272824200331324, "id": 474}, {"HEALTH_FACILITY_NAME": "Dzankrom HC", "site_id": 692, "HEALTH_FACILITY_LOCALITY": "Nsawam Adoagyire Municipal", "latitude": 5.81647, "longitude": -0.34993, "weight": 0.304585117804214, "id": 475}, {"HEALTH_FACILITY_NAME": "Govinakrom CHPS", "site_id": 691, "HEALTH_FACILITY_LOCALITY": "Ayensuano District", "latitude": 5.92365, "longitude": -0.3544, "weight": 0.2020470264820222, "id": 476}, {"HEALTH_FACILITY_NAME": "Monsie CHPS", "site_id": 689, "HEALTH_FACILITY_LOCALITY": "Kwahu West Municipal", "latitude": 6.48392, "longitude": -0.60576, "weight": 0.6025969978886982, "id": 477}, {"HEALTH_FACILITY_NAME": "Akroso HC", "site_id": 54, "HEALTH_FACILITY_LOCALITY": "Asene Akroso Manso District", "latitude": 5.76549, "longitude": -0.76965, "weight": 0.669426176549644, "id": 478}, {"HEALTH_FACILITY_NAME": "Apinamang CHPS", "site_id": 686, "HEALTH_FACILITY_LOCALITY": "Denkyembour District", "latitude": 6.082820082, "longitude": -0.694107724, "weight": 0.4932548128742914, "id": 479}, {"HEALTH_FACILITY_NAME": "Anweam CHPS", "site_id": 685, "HEALTH_FACILITY_LOCALITY": "Kwaebibirem Municipal", "latitude": 6.23161, "longitude": -0.94914, "weight": 0.7950357816360082, "id": 480}, {"HEALTH_FACILITY_NAME": "Abompe CHPS", "site_id": 684, "HEALTH_FACILITY_LOCALITY": "Kwaebibirem Municipal", "latitude": 6.20026, "longitude": -0.8796, "weight": 0.7125217548181242, "id": 481}, {"HEALTH_FACILITY_NAME": "Abaam HC", "site_id": 683, "HEALTH_FACILITY_LOCALITY": "Kwaebibirem Municipal", "latitude": 6.21269, "longitude": -0.83056, "weight": 0.6624792132426057, "id": 482}, {"HEALTH_FACILITY_NAME": "Addonkwanta (East Akim) CHPS", "site_id": 682, "HEALTH_FACILITY_LOCALITY": "Abuakwa South District", "latitude": 6.17285, "longitude": -0.43202, "weight": 0.23131208145856966, "id": 483}, {"HEALTH_FACILITY_NAME": "Asamanma CHPS", "site_id": 681, "HEALTH_FACILITY_LOCALITY": "Atiwa West District", "latitude": 6.33246, "longitude": -0.67755, "weight": 0.5549249586787498, "id": 484}, {"HEALTH_FACILITY_NAME": "Akakom CHPS", "site_id": 680, "HEALTH_FACILITY_LOCALITY": "Atiwa West District", "latitude": 6.27342, "longitude": -0.70854, "weight": 0.5553712601881977, "id": 485}, {"HEALTH_FACILITY_NAME": "Kofi Nimo CHPS", "site_id": 55, "HEALTH_FACILITY_LOCALITY": "Akyemansa District", "latitude": 6.0504, "longitude": -1.09651, "weight": 0.9389224248816795, "id": 486}, {"HEALTH_FACILITY_NAME": "Chia CHPS", "site_id": 678, "HEALTH_FACILITY_LOCALITY": "Akyemansa District", "latitude": 6.20939, "longitude": -1.0812, "weight": 0.9338617426373439, "id": 487}, {"HEALTH_FACILITY_NAME": "Jamasi No 1 CHPS", "site_id": 677, "HEALTH_FACILITY_LOCALITY": "Kwahu West Municipal", "latitude": 6.55811, "longitude": -0.95286, "weight": 0.9463104402881898, "id": 488}, {"HEALTH_FACILITY_NAME": "Nkwarteng HC", "site_id": 676, "HEALTH_FACILITY_LOCALITY": "Birim North District", "latitude": 6.26588, "longitude": -1.07236, "weight": 0.9364198893816884, "id": 489}, {"HEALTH_FACILITY_NAME": "Achiansah CHPS", "site_id": 675, "HEALTH_FACILITY_LOCALITY": "Ayensuano District", "latitude": 6.029995103, "longitude": -0.557808975, "weight": 0.3454802825302821, "id": 490}, {"HEALTH_FACILITY_NAME": "Anum Apapam HC", "site_id": 674, "HEALTH_FACILITY_LOCALITY": "Ayensuano District", "latitude": 5.98072, "longitude": -0.5789, "weight": 0.37946539125948375, "id": 491},